SALE TYPE,SOLD DATE,PROPERTY TYPE,ADDRESS,CITY,STATE OR PROVINCE,ZIP OR POSTAL CODE,PRICE,BEDS,BATHS,LOCATION,SQUARE FEET,LOT SIZE,YEAR BUILT,DAYS ON MARKET,$/SQUARE FEET,HOA/MONTH,STATUS,NEXT OPEN HOUSE START TIME,NEXT OPEN HOUSE END TIME,URL (SEE https://www.redfin.com/buy-a-home/comparative-market-analysis FOR INFO ON PRICING),SOURCE,MLS#,FAVORITE,INTERESTED,LATITUDE,LONGITUDE
"In accordance with local MLS rules, some MLS listings are not included in the download"
PAST SALE,April-5-2024,Single Family Residential,6701 Piney Branch Rd NW,Washington,DC,20012,829000,5,4.0,Brightwood,2886,3667,1938,,287,,Sold,,,https://www.redfin.com/DC/Washington/6701-Piney-Branch-Rd-NW-20012/home/10053503,BRIGHT MLS,DCDC2130136,N,Y,38.9715025,-77.0239151
PAST SALE,,Townhouse,4428 Kansas Ave NW,Washington,DC,20011,670000,3,2.0,,1280,2124,1911,,523,,,,,https://www.redfin.com/DC/Washington/4428-Kansas-Ave-NW-20011/home/10041670,,,N,Y,38.9446822,-77.0242974
PAST SALE,March-22-2024,Condo/Co-op,3001 Veazey Ter NW #213,Washington,DC,20008,270000,1,1.0,Forest Hills,1050,,1967,,257,1043,Sold,,,https://www.redfin.com/DC/Washington/3001-Veazey-Ter-NW-20008/unit-213/home/105497358,BRIGHT MLS,DCDC2106134,N,Y,38.9449325,-77.0617849
PAST SALE,May-16-2024,Single Family Residential,3314 Quesada St NW,Washington,DC,20015,2025000,5,4.5,Chevy Chase,3613,6909,1934,,560,,Sold,,,https://www.redfin.com/DC/Washington/3314-Quesada-St-NW-20015/home/9979844,BRIGHT MLS,DCDC2142244,N,Y,38.9683947,-77.0676401
PAST SALE,,Single Family Residential,6213 30th St NW,Washington,DC,20015,1865000,4,3.0,,2070,9000,1937,,901,,,,,https://www.redfin.com/DC/Washington/6213-30th-St-NW-20015/home/9994760,,,N,Y,38.971533,-77.0593311
PAST SALE,,Single Family Residential,3913 Huntington St NW,Washington,DC,20015,2600000,6,5.5,,4844,5140,2005,,537,,,,,https://www.redfin.com/DC/Washington/3913-Huntington-St-NW-20015/home/9962391,,,N,Y,38.9579087,-77.0787286
PAST SALE,May-31-2024,Condo/Co-op,7175 12th St NW Unit 606,Washington,DC,20012,809000,2,2.0,SHEPHERD PARK,1039,,2023,,779,689,Sold,,,https://www.redfin.com/DC/Washington/7175-12th-St-NW-20012/unit-606/home/190705018,BRIGHT MLS,DCDC2142082,N,Y,38.97692,-77.0276172
PAST SALE,,Single Family Residential,3204 Morrison St NW,Washington,DC,20015,1725000,3,2.5,,1918,3871,1931,,899,,,,,https://www.redfin.com/DC/Washington/3204-Morrison-St-NW-20015/home/9980762,,,N,Y,38.9638612,-77.0642863
PAST SALE,April-18-2024,Townhouse,815 Marietta Pl NW,Washington,DC,20011,450000,4,1.5,Petworth,1436,1508,1926,,313,,Sold,,,https://www.redfin.com/DC/Washington/815-Marietta-Pl-NW-20011/home/10039058,BRIGHT MLS,DCDC2132176,N,Y,38.9593651,-77.0248166
PAST SALE,,Single Family Residential,5605 32nd St NW,Washington,DC,20015,609900,3,3.0,,1494,5000,1933,,408,,,,,https://www.redfin.com/DC/Washington/5605-32nd-St-NW-20015/home/9993650,,,N,Y,38.965206,-77.0636306
PAST SALE,May-20-2024,Single Family Residential,2928 Mckinley St NW,Washington,DC,20015,1000000,5,4.0,Chevy Chase,2476,6000,1936,,404,,Sold,,,https://www.redfin.com/DC/Washington/2928-McKinley-St-NW-20015/home/9993202,BRIGHT MLS,DCDC2139380,N,Y,38.9646592,-77.0599703
PAST SALE,,Single Family Residential,1222 Hemlock St NW,Washington,DC,20012,710000,4,1.5,,1660,2088,1927,,428,,,,,https://www.redfin.com/DC/Washington/1222-Hemlock-St-NW-20012/home/10036797,,,N,Y,38.9809884,-77.0290706
PAST SALE,March-28-2024,Condo/Co-op,911 Kennedy St NW #7,Washington,DC,20011,430000,2,2.5,Petworth,911,,2007,,472,280,Sold,,,https://www.redfin.com/DC/Washington/911-Kennedy-St-NW-20011/unit-7/home/21644329,BRIGHT MLS,DCDC2125138,N,Y,38.9565153,-77.026378
PAST SALE,April-8-2024,Single Family Residential,6012 Nebraska Ave NW,Washington,DC,20015,1425000,4,3.5,Chevy Chase,4200,5584,1955,,339,,Sold,,,https://www.redfin.com/DC/Washington/6012-Nebraska-Ave-NW-20015/home/9994204,BRIGHT MLS,DCDC2128222,N,Y,38.9691583,-77.0575032
PAST SALE,,Townhouse,1229 Ingraham St NW,Washington,DC,20011,867500,3,1.5,,1520,2578,1921,,571,,,,,https://www.redfin.com/DC/Washington/1229-Ingraham-St-NW-20011/home/10035654,,,N,Y,38.9542957,-77.0289085
PAST SALE,,Single Family Residential,5363 29th St NW,Washington,DC,20015,1950000,5,5.5,,3806,5058,2017,,512,,,,,https://www.redfin.com/DC/Washington/5363-29th-St-NW-20015/home/143530365,,,N,Y,38.9606771,-77.0584559
PAST SALE,April-16-2024,Condo/Co-op,3001 Veazey Ter NW #1510,Washington,DC,20008,560000,2,2.0,Forest Hills,1485,,1967,,377,1467,Sold,,,https://www.redfin.com/DC/Washington/3001-Veazey-Ter-NW-20008/unit-1510/home/143393275,BRIGHT MLS,DCDC2138084,N,Y,38.9449325,-77.0617849
PAST SALE,April-29-2024,Condo/Co-op,3001 Veazey Ter NW #634,Washington,DC,20008,580000,2,2.0,Forest Hills,,,1967,,,1583,Sold,,,https://www.redfin.com/DC/Washington/3001-Veazey-Ter-NW-20008/unit-634/home/143322588,BRIGHT MLS,DCDC2140268,N,Y,38.9449325,-77.0617849
PAST SALE,April-1-2024,Single Family Residential,4600 16th St NW,Washington,DC,20011,1232780,4,2.5,Crestwood,5066,8110,1924,,243,,Sold,,,https://www.redfin.com/DC/Washington/4600-16th-St-NW-20011/home/10012528,BRIGHT MLS,DCDC2130576,N,Y,38.9463562,-77.036869
PAST SALE,March-7-2024,Single Family Residential,4417 Windom Pl NW,Washington,DC,20016,1400000,4,2.5,American University,1630,4558,1937,,859,,Sold,,,https://www.redfin.com/DC/Washington/4417-Windom-Pl-NW-20016/home/9949755,BRIGHT MLS,DCDC2122658,N,Y,38.9457009,-77.0871794
PAST SALE,April-1-2024,Condo/Co-op,4101 Albemarle St NW #604,Washington,DC,20016,1300000,2,2.0,American University,1450,,2005,,897,,Sold,,,https://www.redfin.com/DC/Washington/4101-Albemarle-St-NW-20016/unit-604/home/10349201,BRIGHT MLS,DCDC2133090,N,Y,38.9487791,-77.0808194
PAST SALE,March-29-2024,Condo/Co-op,7175 12th St NW Unit 401,Washington,DC,20012,257900,1,1.0,SHEPHERD PARK,641,,2023,,402,411,Sold,,,https://www.redfin.com/DC/Washington/7175-12th-St-NW-20012/unit-401/home/190337939,BRIGHT MLS,DCDC2134762,N,Y,38.97692,-77.0276172
PAST SALE,,Single Family Residential,6444 31st St NW,Washington,DC,20015,1350000,5,3.0,,2618,3176,1936,,516,,,,,https://www.redfin.com/DC/Washington/6444-31st-St-NW-20015/home/9995388,,,N,Y,38.9754617,-77.0568736
PAST SALE,April-15-2024,Single Family Residential,3634 Jocelyn St NW,Washington,DC,20015,1340000,4,3.5,Chevy Chase,1817,3488,1932,,737,,Sold,,,https://www.redfin.com/DC/Washington/3634-Jocelyn-St-NW-20015/home/9978133,BRIGHT MLS,DCDC2129476,N,Y,38.9595377,-77.0695867
PAST SALE,,Single Family Residential,2934 Ellicott Ter NW,Washington,DC,20008,1600000,3,3.0,,1896,18560,1962,,844,,,,,https://www.redfin.com/DC/Washington/2934-Ellicott-Ter-NW-20008/home/9992312,,,N,Y,38.953005,-77.0604319
PAST SALE,April-11-2024,Single Family Residential,3378 Stephenson Pl NW,Washington,DC,20015,1850000,5,4.0,Chevy Chase,4239,6409,1919,,436,,Sold,,,https://www.redfin.com/DC/Washington/3378-Stephenson-Pl-NW-20015/home/9979553,BRIGHT MLS,DCDC2133226,N,Y,38.9711083,-77.0695104
PAST SALE,,Multi-Family (5+ Unit),5305 Connecticut Ave NW #7,Washington,DC,20015,655000,4,2.0,,4326,3650,1913,,151,,,,,https://www.redfin.com/DC/Washington/5305-Connecticut-Ave-NW-20015/unit-7/home/9971192,,,N,Y,38.9593517,-77.0720147
PAST SALE,May-11-2024,Townhouse,811 Buchanan St NW,Washington,DC,20011,825000,3,2.0,Petworth,1920,2850,1922,,430,,Sold,,,https://www.redfin.com/DC/Washington/811-Buchanan-St-NW-20011/home/10041274,BRIGHT MLS,DCDC2141358,N,Y,38.946363,-77.0242572
PAST SALE,May-24-2024,Townhouse,1413 Buchanan St NW,Washington,DC,20011,702885,4,2.5,16th Street Heights,1698,2160,1910,,414,,Sold,,,https://www.redfin.com/DC/Washington/1413-Buchanan-St-NW-20011/home/10016841,BRIGHT MLS,DCDC2141930,N,Y,38.9463136,-77.0337102
PAST SALE,May-9-2024,Single Family Residential,854 Venable Pl NW,Washington,DC,20012,1010000,6,4.5,Brightwood,4143,3862,1926,,244,,Sold,,,https://www.redfin.com/DC/Washington/854-Venable-Pl-NW-20012/home/10038140,BRIGHT MLS,DCDC2138010,N,Y,38.9705681,-77.0257233
PAST SALE,March-22-2024,Single Family Residential,4414 Davenport St NW,Washington,DC,20016,1840000,5,4.5,American University,2960,6248,1938,,622,,Sold,,,https://www.redfin.com/DC/Washington/4414-Davenport-St-NW-20016/home/9949395,BRIGHT MLS,DCDC2129086,N,Y,38.9519037,-77.0870468
PAST SALE,May-23-2024,Condo/Co-op,4101 Albemarle St NW #336,Washington,DC,20016,1150000,3,2.0,American University,1359,,2005,,846,920,Sold,,,https://www.redfin.com/DC/Washington/4101-Albemarle-St-NW-20016/unit-336/home/10348980,BRIGHT MLS,DCDC2132850,N,Y,38.9487791,-77.0808194
PAST SALE,April-12-2024,Single Family Residential,3507 Morrison St NW,Washington,DC,20015,1650000,4,2.5,Chevy Chase,2639,7800,1920,,625,,Sold,,,https://www.redfin.com/DC/Washington/3507-Morrison-St-NW-20015/home/9978616,BRIGHT MLS,DCDC2130278,N,Y,38.9642173,-77.0695554
PAST SALE,March-8-2024,Townhouse,3722 Jenifer St NW,Washington,DC,20015,1400000,3,4.5,Chevy Chase,3100,2019,1976,,452,,Sold,,,https://www.redfin.com/DC/Washington/3722-Jenifer-St-NW-20015/home/9971605,BRIGHT MLS,DCDC2125474,N,Y,38.9588816,-77.0723883
PAST SALE,June-4-2024,Single Family Residential,4618 Warren St NW,Washington,DC,20016,1925250,4,3.0,American University,3000,4160,1939,,642,,Sold,,,https://www.redfin.com/DC/Washington/4618-Warren-St-NW-20016/home/9948118,BRIGHT MLS,DCDC2140026,N,Y,38.9446004,-77.0915766
PAST SALE,April-15-2024,Single Family Residential,202 Oxford St,Chevy Chase,MD,20815,1700000,4,2.5,MARTINS ADDITION,2475,10900,1931,,687,,Sold,,,https://www.redfin.com/MD/Chevy-Chase/202-Oxford-St-20815/home/10650952,BRIGHT MLS,MDMC2122322,N,Y,38.974215,-77.069905
PAST SALE,May-17-2024,Single Family Residential,3226 Northampton St NW,Washington,DC,20015,1550000,5,3.5,Chevy Chase,3244,7188,1936,,478,,Sold,,,https://www.redfin.com/DC/Washington/3226-Northampton-St-NW-20015/home/9980461,BRIGHT MLS,DCDC2138606,N,Y,38.9656729,-77.0660927
PAST SALE,May-21-2024,Single Family Residential,3515 Runnymede Pl NW,Washington,DC,20015,1725000,4,3.0,Chevy Chase,2318,6872,1939,,744,,Sold,,,https://www.redfin.com/DC/Washington/3515-Runnymede-Pl-NW-20015/home/9979127,BRIGHT MLS,DCDC2133328,N,Y,38.9707293,-77.0718487
PAST SALE,May-6-2024,Single Family Residential,3211 Tennyson St NW,Washington,DC,20015,3200000,6,5.5,Chevy Chase,7150,8568,2010,,448,,Sold,,,https://www.redfin.com/DC/Washington/3211-Tennyson-St-NW-20015/home/28496629,BRIGHT MLS,DCDC2134536,N,Y,38.9731243,-77.0653283
PAST SALE,May-22-2024,Single Family Residential,1419 Whittier Pl NW,Washington,DC,20012,650000,3,3.5,Brightwood,1519,4671,1948,,428,,Sold,,,https://www.redfin.com/DC/Washington/1419-Whittier-Pl-NW-20012/home/10019026,BRIGHT MLS,DCDC2123036,N,Y,38.9717397,-77.0344749
PAST SALE,April-26-2024,Condo/Co-op,4101 Albemarle St NW #521,Washington,DC,20016,925000,2,2.0,American University,1240,,2005,,746,612,Sold,,,https://www.redfin.com/DC/Washington/4101-Albemarle-St-NW-20016/unit-521/home/10349138,BRIGHT MLS,DCDC2135284,N,Y,38.9487791,-77.0808194
PAST SALE,April-22-2024,Single Family Residential,5015 44th St NW,Washington,DC,20016,1575000,4,3.0,American University,1812,5391,1940,,869,,Sold,,,https://www.redfin.com/DC/Washington/5015-44th-St-NW-20016/home/9957162,BRIGHT MLS,DCDC2134162,N,Y,38.9555976,-77.0860127
PAST SALE,April-19-2024,Condo/Co-op,4444 Connecticut Ave NW #505,Washington,DC,20008,570000,2,1.5,North Cleveland Park,969,,1983,,588,488,Sold,,,https://www.redfin.com/DC/Washington/4444-Connecticut-Ave-NW-20008/unit-505/home/9975841,BRIGHT MLS,DCDC2133874,N,Y,38.9477647,-77.065961
PAST SALE,April-12-2024,Single Family Residential,5128 Linnean Ter NW,Washington,DC,20008,1805000,4,3.0,Forest Hills,2180,7963,1951,,828,,Sold,,,https://www.redfin.com/DC/Washington/5128-Linnean-Ter-NW-20008/home/9981263,BRIGHT MLS,DCDC2127890,N,Y,38.9563219,-77.0681613
PAST SALE,May-10-2024,Single Family Residential,4611 Yuma St NW,Washington,DC,20016,2395000,6,6.0,American University,3008,4629,1939,,796,,Sold,,,https://www.redfin.com/DC/Washington/4611-Yuma-St-NW-20016/home/9947996,BRIGHT MLS,DCDC2127186,N,Y,38.94645,-77.0912665
PAST SALE,May-6-2024,Single Family Residential,5208 13th St NW,Washington,DC,20011,1160000,4,2.5,16th Street Heights,2296,4300,1921,,505,,Sold,,,https://www.redfin.com/DC/Washington/5208-13th-St-NW-20011/home/10024690,BRIGHT MLS,DCDC2136570,N,Y,38.9535827,-77.0300259
PAST SALE,June-4-2024,Single Family Residential,3377 Stephenson Pl NW,Washington,DC,20015,1285000,3,1.5,Chevy Chase,2206,5375,1925,,583,,Sold,,,https://www.redfin.com/DC/Washington/3377-Stephenson-Pl-NW-20015/home/9979413,BRIGHT MLS,DCDC2140736,N,Y,38.9714761,-77.0694515
PAST SALE,May-31-2024,Single Family Residential,3627 Alton Pl NW,Washington,DC,20008,1300000,3,2.0,North Cleveland Park,1820,4300,1948,,714,,Sold,,,https://www.redfin.com/DC/Washington/3627-Alton-Pl-NW-20008/home/9975475,BRIGHT MLS,DCDC2140782,N,Y,38.947306,-77.0710843
PAST SALE,April-29-2024,Single Family Residential,817 Quintana Pl NW,Washington,DC,20011,890000,4,3.5,Brightwood,2654,2400,1923,,335,,Sold,,,https://www.redfin.com/DC/Washington/817-Quintana-Pl-NW-20011/home/10038763,BRIGHT MLS,DCDC2134040,N,Y,38.964529,-77.025577
PAST SALE,May-13-2024,Single Family Residential,5920 16th St NW,Washington,DC,20011,1245000,4,4.0,16th Street Heights,3778,4897,1937,,330,,Sold,,,https://www.redfin.com/DC/Washington/5920-16th-St-NW-20011/home/10019682,BRIGHT MLS,DCDC2137510,N,Y,38.9621909,-77.0367559
PAST SALE,April-30-2024,Single Family Residential,1707 Allison St NW,Washington,DC,20011,1795000,4,3.5,Crestwood,3765,5293,1926,,477,,Sold,,,https://www.redfin.com/DC/Washington/1707-Allison-St-NW-20011/home/10012885,BRIGHT MLS,DCDC2135862,N,Y,38.9453122,-77.0399951
PAST SALE,March-27-2024,Single Family Residential,3286 Aberfoyle Pl NW,Washington,DC,20015,1817000,4,3.5,Chevy Chase,3724,6999,1949,,488,,Sold,,,https://www.redfin.com/DC/Washington/3286-Aberfoyle-Pl-NW-20015/home/9995994,BRIGHT MLS,DCDC2125448,N,Y,38.9775718,-77.0628099
PAST SALE,March-21-2024,Single Family Residential,5103 13th St NW,Washington,DC,20011,1100000,4,2.5,16th Street Heights,2279,4000,1917,,483,,Sold,,,https://www.redfin.com/DC/Washington/5103-13th-St-NW-20011/home/10035512,BRIGHT MLS,DCDC2128442,N,Y,38.9521978,-77.0294623
PAST SALE,May-10-2024,Single Family Residential,3121 Patterson St NW,Washington,DC,20015,1266501,4,3.0,Chevy Chase,2865,3678,1951,,442,,Sold,,,https://www.redfin.com/DC/Washington/3121-Patterson-St-NW-20015/home/9994297,BRIGHT MLS,DCDC2133732,N,Y,38.9678302,-77.06193
PAST SALE,April-22-2024,Single Family Residential,3332 Quesada St NW,Washington,DC,20015,1995000,3,2.5,Chevy Chase,2775,9455,1935,,719,,Sold,,,https://www.redfin.com/DC/Washington/3332-Quesada-St-NW-20015/home/9979855,BRIGHT MLS,DCDC2124050,N,Y,38.9684462,-77.0682962
PAST SALE,March-14-2024,Condo/Co-op,3001 Veazey Ter NW #1529,Washington,DC,20008,260000,1,1.0,Forest Hills,936,,1967,,278,979,Sold,,,https://www.redfin.com/DC/Washington/3001-Veazey-Ter-NW-20008/unit-1529/home/189093176,BRIGHT MLS,DCDC2123576,N,Y,38.9449325,-77.0617849
PAST SALE,April-30-2024,Single Family Residential,5621 Grove St,Chevy Chase,MD,20815,2300000,5,4.5,CHEVY CHASE SEC 1,4100,8400,1930,,561,,Sold,,,https://www.redfin.com/MD/Chevy-Chase/5621-Grove-St-20815/home/10640603,BRIGHT MLS,MDMC2122246,N,Y,38.9662613,-77.0801368
PAST SALE,April-15-2024,Single Family Residential,2964 Chesapeake St NW,Washington,DC,20008,2475000,4,4.0,Forest Hills,4134,9500,1938,,599,,Sold,,,https://www.redfin.com/DC/Washington/2964-Chesapeake-St-NW-20008/home/9991955,BRIGHT MLS,DCDC2130796,N,Y,38.9505358,-77.0598532
PAST SALE,May-28-2024,Single Family Residential,4622 Davenport St NW,Washington,DC,20016,1275000,3,2.0,American University,1853,5680,1935,,688,,Sold,,,https://www.redfin.com/DC/Washington/4622-Davenport-St-NW-20016/home/9947824,BRIGHT MLS,DCDC2139760,N,Y,38.9518954,-77.0916848
PAST SALE,May-30-2024,Townhouse,6427 8th St NW,Washington,DC,20012,780000,3,3.5,Brightwood,1825,1696,2018,,427,,Sold,,,https://www.redfin.com/DC/Washington/6427-8th-St-NW-20012/home/10053263,BRIGHT MLS,DCDC2140990,N,Y,38.9682856,-77.024005
PAST SALE,May-21-2024,Townhouse,5229 Connecticut Ave NW #809,Washington,DC,20015,860000,3,2.5,Chevy Chase,1251,,1971,,687,549,Sold,,,https://www.redfin.com/DC/Washington/5229-Connecticut-Ave-NW-20015/unit-809/home/9971534,BRIGHT MLS,DCDC2138864,N,Y,38.9586383,-77.0716577
PAST SALE,May-23-2024,Single Family Residential,5500 Nebraska Ave NW,Washington,DC,20015,2100000,4,5.5,Chevy Chase,3985,6383,1934,,527,,Sold,,,https://www.redfin.com/DC/Washington/5500-Nebraska-Ave-NW-20015/home/9980722,BRIGHT MLS,DCDC2135000,N,Y,38.9633361,-77.0645638
PAST SALE,May-23-2024,Single Family Residential,3610 Patterson St NW,Washington,DC,20015,1735000,4,3.5,Chevy Chase,2707,3032,1928,,641,,Sold,,,https://www.redfin.com/DC/Washington/3610-Patterson-St-NW-20015/home/9978843,BRIGHT MLS,DCDC2130584,N,Y,38.967412,-77.0722984
PAST SALE,June-3-2024,Single Family Residential,5446 30th St NW,Washington,DC,20015,1600000,4,3.5,Chevy Chase,2877,5805,1936,,556,,Sold,,,https://www.redfin.com/DC/Washington/5446-30th-St-NW-20015/home/9992972,BRIGHT MLS,DCDC2137354,N,Y,38.9625589,-77.0602891
PAST SALE,May-17-2024,Single Family Residential,5501 29th St NW,Washington,DC,20015,1150000,2,2.0,Chevy Chase,1592,6209,1951,,722,,Sold,,,https://www.redfin.com/DC/Washington/5501-29th-St-NW-20015/home/9993335,BRIGHT MLS,DCDC2138672,N,Y,38.963971,-77.0585264
PAST SALE,May-21-2024,Single Family Residential,5600 Broad Branch Rd NW,Washington,DC,20015,1803000,6,3.5,Chevy Chase,3900,3778,1927,,462,,Sold,,,https://www.redfin.com/DC/Washington/5600-Broad-Branch-Rd-NW-20015/home/9978718,BRIGHT MLS,DCDC2137372,N,Y,38.9651235,-77.0683412
PAST SALE,May-1-2024,Single Family Residential,3124 Quesada St NW,Washington,DC,20015,1550000,5,3.5,Chevy Chase,2891,4054,1941,,536,,Sold,,,https://www.redfin.com/DC/Washington/3124-Quesada-St-NW-20015/home/9994252,BRIGHT MLS,DCDC2129622,N,Y,38.9688031,-77.0626509
PAST SALE,March-28-2024,Single Family Residential,4623 44th St NW,Washington,DC,20016,1205000,3,2.0,American University,1365,5300,1929,,883,,Sold,,,https://www.redfin.com/DC/Washington/4623-44th-St-NW-20016/home/9956875,BRIGHT MLS,DCDC2130120,N,Y,38.9504943,-77.0859227
PAST SALE,March-22-2024,Townhouse,732 Rittenhouse St NW,Washington,DC,20011,772500,4,2.0,Brightwood,2384,2600,1925,,324,,Sold,,,https://www.redfin.com/DC/Washington/732-Rittenhouse-St-NW-20011/home/10052701,BRIGHT MLS,DCDC2128548,N,Y,38.9647381,-77.0236705
PAST SALE,May-24-2024,Townhouse,1325 Sheridan St NW,Washington,DC,20011,788000,4,3.0,Brightwood,2412,1656,1936,,327,,Sold,,,https://www.redfin.com/DC/Washington/1325-Sheridan-St-NW-20011/home/10023417,BRIGHT MLS,DCDC2139870,N,Y,38.9663405,-77.0307079
PAST SALE,March-22-2024,Townhouse,911 Jefferson St NW,Washington,DC,20011,575000,5,2.0,Petworth,2511,3278,1910,,229,,Sold,,,https://www.redfin.com/DC/Washington/911-Jefferson-St-NW-20011/home/11743862,BRIGHT MLS,DCDC2129680,N,Y,38.9553198,-77.0263665
PAST SALE,April-30-2024,Townhouse,1333 Madison St NW,Washington,DC,20011,965000,4,4.0,16th Street Heights,2887,3461,1927,,334,,Sold,,,https://www.redfin.com/DC/Washington/1333-Madison-St-NW-20011/home/10024026,BRIGHT MLS,DCDC2134106,N,Y,38.9585449,-77.0318465
PAST SALE,May-10-2024,Single Family Residential,4551 Grant Rd NW,Washington,DC,20016,2160000,5,3.5,Wakefield,3332,4709,1966,,648,,Sold,,,https://www.redfin.com/DC/Washington/4551-Grant-Rd-NW-20016/home/9968988,BRIGHT MLS,DCDC2133548,N,Y,38.9489511,-77.0752846
PAST SALE,May-7-2024,Townhouse,1422 Whittier St NW,Washington,DC,20012,908000,3,2.5,Brightwood,2887,2800,1937,,315,,Sold,,,https://www.redfin.com/DC/Washington/1422-Whittier-St-NW-20012/home/10018899,BRIGHT MLS,DCDC2129040,N,Y,38.9705118,-77.0346878
PAST SALE,April-30-2024,Single Family Residential,3205 Stephenson Pl NW,Washington,DC,20015,1360000,4,2.0,Chevy Chase,2102,7200,1950,,647,,Sold,,,https://www.redfin.com/DC/Washington/3205-Stephenson-Pl-NW-20015/home/9980186,BRIGHT MLS,DCDC2132992,N,Y,38.9714869,-77.0642725
PAST SALE,April-1-2024,Townhouse,3625 Everett St NW,Washington,DC,20008,1795000,4,3.5,Wakefield,2740,2646,1926,,655,,Sold,,,https://www.redfin.com/DC/Washington/3625-Everett-St-NW-20008/home/9977571,BRIGHT MLS,DCDC2124038,N,Y,38.9541836,-77.07075
PAST SALE,April-30-2024,Single Family Residential,1247 Underwood St NW,Washington,DC,20012,1015000,4,3.5,Brightwood,2716,4432,1942,,374,,Sold,,,https://www.redfin.com/DC/Washington/1247-Underwood-St-NW-20012/home/10036348,BRIGHT MLS,DCDC2136630,N,Y,38.9692109,-77.0293151
PAST SALE,May-9-2024,Single Family Residential,4914 Albemarle St NW,Washington,DC,20016,2115000,5,3.5,American University,3600,6511,1935,,588,,Sold,,,https://www.redfin.com/DC/Washington/4914-Albemarle-St-NW-20016/home/9945712,BRIGHT MLS,DCDC2134458,N,Y,38.9476883,-77.0975196
PAST SALE,May-7-2024,Single Family Residential,4501 Linnean Ave NW,Washington,DC,20008,2950000,4,3.5,Forest Hills,5960,14556,1934,,495,,Sold,,,https://www.redfin.com/DC/Washington/4501-Linnean-Ave-NW-20008/home/9991692,BRIGHT MLS,DCDC2138562,N,Y,38.9481844,-77.0564499
PAST SALE,April-4-2024,Vacant Land,4900 Western Ave,Bethesda,MD,20816,625000,,,AMERICAN UNIV PARK,,6000,,,,,Sold,,,https://www.redfin.com/MD/Bethesda/4900-Western-Ave-20816/home/171189087,BRIGHT MLS,MDMC2121692,N,Y,38.953499,-77.0956
PAST SALE,April-5-2024,Single Family Residential,801 Van Buren St NW,Washington,DC,20012,695000,3,2.0,Brightwood,2363,4221,1933,,294,,Sold,,,https://www.redfin.com/DC/Washington/801-Van-Buren-St-NW-20012/home/10038193,BRIGHT MLS,DCDC2130408,N,Y,38.9700889,-77.0244436
PAST SALE,May-10-2024,Single Family Residential,5475 Nebraska Ave NW,Washington,DC,20015,1305000,3,3.5,Chevy Chase,2504,6615,1938,,521,,Sold,,,https://www.redfin.com/DC/Washington/5475-Nebraska-Ave-NW-20015/home/9980822,BRIGHT MLS,DCDC2135776,N,Y,38.963045,-77.0641141
PAST SALE,April-5-2024,Single Family Residential,6229 29th St NW,Washington,DC,20015,2380000,5,4.0,Chevy Chase,4221,7500,1937,,564,,Sold,,,https://www.redfin.com/DC/Washington/6229-29th-St-NW-20015/home/9994841,BRIGHT MLS,DCDC2132476,N,Y,38.9709779,-77.0579979
PAST SALE,April-10-2024,Single Family Residential,4816 Brandywine St NW,Washington,DC,20016,1700000,4,4.0,American University,2900,4382,1940,,586,,Sold,,,https://www.redfin.com/DC/Washington/4816-Brandywine-St-NW-20016/home/9946157,BRIGHT MLS,DCDC2130802,N,Y,38.9494699,-77.09526
PAST SALE,March-21-2024,Single Family Residential,5447 Chevy Chase Pkwy NW,Washington,DC,20015,1460000,3,2.5,Chevy Chase,1990,5494,1929,,734,,Sold,,,https://www.redfin.com/DC/Washington/5447-Chevy-Chase-Pkwy-NW-20015/home/9978432,BRIGHT MLS,DCDC2129008,N,Y,38.9629282,-77.0711447
PAST SALE,March-19-2024,Single Family Residential,2820 Ellicott St NW,Washington,DC,20008,1811000,4,2.5,Forest Hills,3542,11289,1960,,511,,Sold,,,https://www.redfin.com/DC/Washington/2820-Ellicott-St-NW-20008/home/9992343,BRIGHT MLS,DCDC2128474,N,Y,38.9527094,-77.0581329
PAST SALE,April-9-2024,Townhouse,6313 9th St NW,Washington,DC,20011,650000,3,2.0,Brightwood,1515,1500,1926,,429,,Sold,,,https://www.redfin.com/DC/Washington/6313-9th-St-NW-20011/home/10038528,BRIGHT MLS,DCDC2132114,N,Y,38.9668283,-77.0257482
PAST SALE,May-14-2024,Condo/Co-op,3001 Veazey Ter NW #1209,Washington,DC,20008,299900,1,1.0,VAN NESS NORTH,1000,,1967,,300,1071,Sold,,,https://www.redfin.com/DC/Washington/3001-Veazey-Ter-NW-20008/unit-1209/home/143318194,BRIGHT MLS,DCDC2127224,N,Y,38.9449325,-77.0617849
PAST SALE,May-21-2024,Single Family Residential,6319 31st Pl NW,Washington,DC,20015,1381000,4,3.0,Chevy Chase,1888,3502,1937,,731,,Sold,,,https://www.redfin.com/DC/Washington/6319-31st-Pl-NW-20015/home/9995266,BRIGHT MLS,DCDC2138596,N,Y,38.9733405,-77.0604714
PAST SALE,,Single Family Residential,5619 Western Ave NW,Washington,DC,20015,950000,4,3.5,,2447,6793,1925,,388,,,,,https://www.redfin.com/DC/Washington/5619-Western-Ave-NW-20015/home/9961796,,,N,Y,38.9653375,-77.0795379
PAST SALE,May-24-2024,Single Family Residential,5616 Western Ave,Chevy Chase,MD,20815,1495000,5,4.5,CHEVY CHASE SEC 1,3728,8100,1928,,401,,Sold,,,https://www.redfin.com/MD/Chevy-Chase/5616-Western-Ave-20815/home/10640573,BRIGHT MLS,MDMC2127348,N,Y,38.965815,-77.079889
PAST SALE,May-31-2024,Single Family Residential,6124 32nd Pl NW,Washington,DC,20015,1182000,3,2.0,Chevy Chase,1762,5400,1936,,671,,Sold,,,https://www.redfin.com/DC/Washington/6124-32nd-Pl-NW-20015/home/9980146,BRIGHT MLS,DCDC2138124,N,Y,38.9706796,-77.0653474
PAST SALE,May-23-2024,Townhouse,1213 Kennedy St NW,Washington,DC,20011,625000,4,1.5,16th Street Heights,2093,2763,1921,,299,,Sold,,,https://www.redfin.com/DC/Washington/1213-Kennedy-St-NW-20011/home/10035837,BRIGHT MLS,DCDC2135704,N,Y,38.956532,-77.028721
PAST SALE,April-30-2024,Single Family Residential,3147 Tennyson St NW,Washington,DC,20015,1780000,4,3.5,Chevy Chase,3406,5559,1940,,523,,Sold,,,https://www.redfin.com/DC/Washington/3147-Tennyson-St-NW-20015/home/9995442,BRIGHT MLS,DCDC2133376,N,Y,38.9730659,-77.0623829
PAST SALE,May-16-2024,Condo/Co-op,738 Longfellow St NW #113,Washington,DC,20011,227500,1,1.0,Petworth,558,,1900,,408,426,Sold,,,https://www.redfin.com/DC/Washington/738-Longfellow-St-NW-20011/unit-113/home/12530560,BRIGHT MLS,DCDC2137636,N,Y,38.957106,-77.0236779
PAST SALE,May-15-2024,Townhouse,5001 Nebraska Ave NW,Washington,DC,20008,995000,3,2.5,Wakefield,1748,2181,1939,,569,,Sold,,,https://www.redfin.com/DC/Washington/5001-Nebraska-Ave-NW-20008/home/9977650,BRIGHT MLS,DCDC2135050,N,Y,38.954952,-77.070974
PAST SALE,May-6-2024,Single Family Residential,3204 Ellicott St NW,Washington,DC,20008,2100000,3,3.5,Forest Hills,4449,8057,1984,,472,,Sold,,,https://www.redfin.com/DC/Washington/3204-Ellicott-St-NW-20008/home/9981396,BRIGHT MLS,DCDC2134150,N,Y,38.9531487,-77.0660323
PAST SALE,May-7-2024,Single Family Residential,6208 32nd St NW,Washington,DC,20015,1298000,3,1.5,Chevy Chase,2009,2585,1938,,646,,Sold,,,https://www.redfin.com/DC/Washington/6208-32nd-St-NW-20015/home/9980224,BRIGHT MLS,DCDC2135132,N,Y,38.9716932,-77.0640989
PAST SALE,May-29-2024,Single Family Residential,3510 Livingston St NW,Washington,DC,20015,1674000,4,3.0,Chevy Chase,3095,6862,1948,,541,,Sold,,,https://www.redfin.com/DC/Washington/3510-Livingston-St-NW-20015/home/9978365,BRIGHT MLS,DCDC2137678,N,Y,38.9629087,-77.0689708
PAST SALE,May-31-2024,Single Family Residential,3272 Aberfoyle Pl NW,Washington,DC,20015,1900000,4,3.5,Chevy Chase,3835,13206,1949,,495,,Sold,,,https://www.redfin.com/DC/Washington/3272-Aberfoyle-Pl-NW-20015/home/9996023,BRIGHT MLS,DCDC2138410,N,Y,38.9775788,-77.0618117
PAST SALE,May-3-2024,Single Family Residential,5600 Colorado Ave NW,Washington,DC,20011,1195000,5,4.0,16th Street Heights,3586,3759,1911,,333,,Sold,,,https://www.redfin.com/DC/Washington/5600-Colorado-Ave-NW-20011/home/10024226,BRIGHT MLS,DCDC2135316,N,Y,38.9574401,-77.0326048
PAST SALE,March-14-2024,Single Family Residential,3637 Appleton St NW,Washington,DC,20008,1310000,5,3.5,Wakefield,2912,6205,1952,,450,,Sold,,,https://www.redfin.com/DC/Washington/3637-Appleton-St-NW-20008/home/9976072,BRIGHT MLS,DCDC2128918,N,Y,38.9489811,-77.0720736
PAST SALE,March-15-2024,Single Family Residential,6133 31st St NW,Washington,DC,20015,1528500,5,4.0,Chevy Chase,3200,5500,1927,,478,,Sold,,,https://www.redfin.com/DC/Washington/6133-31st-St-NW-20015/home/9994578,BRIGHT MLS,DCDC2125464,N,Y,38.9710115,-77.0618655
PAST SALE,March-26-2024,Condo/Co-op,2939 Van Ness St NW #943,Washington,DC,20008,249000,1,1.0,Forest Hills,563,,1964,,442,697,Sold,,,https://www.redfin.com/DC/Washington/2939-Van-Ness-St-NW-20008/unit-943/home/9983382,BRIGHT MLS,DCDC2129124,N,Y,38.9444021,-77.0601378
PAST SALE,April-5-2024,Single Family Residential,3512 Rittenhouse St NW,Washington,DC,20015,4525000,7,5.0,Chevy Chase,8112,20000,1928,,558,,Sold,,,https://www.redfin.com/DC/Washington/3512-Rittenhouse-St-NW-20015/home/11747400,BRIGHT MLS,DCDC2130176,N,Y,38.9693478,-77.070792
PAST SALE,April-30-2024,Single Family Residential,1431 Whittier Pl NW,Washington,DC,20012,823500,3,2.5,Brightwood,2120,4671,1948,,388,,Sold,,,https://www.redfin.com/DC/Washington/1431-Whittier-Pl-NW-20012/home/10019033,BRIGHT MLS,DCDC2133726,N,Y,38.9717157,-77.0349405
PAST SALE,May-24-2024,Single Family Residential,4437 Faraday Pl NW,Washington,DC,20016,1446500,3,3.0,American University,1799,3413,1931,,804,,Sold,,,https://www.redfin.com/DC/Washington/4437-Faraday-Pl-NW-20016/home/9949193,BRIGHT MLS,DCDC2137222,N,Y,38.9555384,-77.0876313
PAST SALE,May-29-2024,Townhouse,3710 Jocelyn St NW,Washington,DC,20015,937500,3,1.5,Chevy Chase,1496,1508,1939,,627,,Sold,,,https://www.redfin.com/DC/Washington/3710-Jocelyn-St-NW-20015/home/9971238,BRIGHT MLS,DCDC2137092,N,Y,38.9595056,-77.0705042
PAST SALE,April-3-2024,Single Family Residential,3900 Ingomar St NW,Washington,DC,20015,2595000,7,4.5,Chevy Chase,4900,6501,1923,,530,,Sold,,,https://www.redfin.com/DC/Washington/3900-Ingomar-St-NW-20015/home/11747332,BRIGHT MLS,DCDC2130646,N,Y,38.9581584,-77.0773796
PAST SALE,May-10-2024,Single Family Residential,5440 Nebraska Ave NW,Washington,DC,20015,1300000,4,2.5,Chevy Chase,1729,5000,1926,,752,,Sold,,,https://www.redfin.com/DC/Washington/5440-Nebraska-Ave-NW-20015/home/9980717,BRIGHT MLS,DCDC2128444,N,Y,38.9624947,-77.0652833
PAST SALE,April-12-2024,Townhouse,731 Oneida Pl NW,Washington,DC,20011,759000,3,2.0,Brightwood,1790,2045,1950,,424,,Sold,,,https://www.redfin.com/DC/Washington/731-Oneida-Pl-NW-20011/home/10052555,BRIGHT MLS,DCDC2132080,N,Y,38.962499,-77.023796
PAST SALE,April-24-2024,Single Family Residential,6678 32nd St NW,Washington,DC,20015,1465000,4,4.0,Chevy Chase,2700,5460,1940,,543,,Sold,,,https://www.redfin.com/DC/Washington/6678-32nd-St-NW-20015/home/9995689,BRIGHT MLS,DCDC2131872,N,Y,38.9769177,-77.0582401
PAST SALE,April-19-2024,Condo/Co-op,4600 Connecticut Ave NW #203,Washington,DC,20008,241000,1,1.0,Wakefield,553,,1948,,436,647,Sold,,,https://www.redfin.com/DC/Washington/4600-Connecticut-Ave-NW-20008/unit-203/home/9976186,BRIGHT MLS,DCDC2132560,N,Y,38.9502949,-77.0675324
PAST SALE,,Condo/Co-op,939 Longfellow St NW #310,Washington,DC,20011,295000,2,1.0,,854,,1940,,345,,,,,https://www.redfin.com/DC/Washington/939-Longfellow-St-NW-20011/unit-310/home/10345526,,,N,Y,38.9575666,-77.0272775
PAST SALE,May-28-2024,Townhouse,5745 13th St NW,Washington,DC,20011,850000,3,3.0,16th Street Heights,2492,1827,1930,,341,,Sold,,,https://www.redfin.com/DC/Washington/5745-13th-St-NW-20011/home/166630071,BRIGHT MLS,DCDC2139712,N,Y,38.9597708,-77.0293498
PAST SALE,May-31-2024,Single Family Residential,4304 Yuma St NW,Washington,DC,20016,1407500,4,2.0,American University,1696,5469,1936,,830,,Sold,,,https://www.redfin.com/DC/Washington/4304-Yuma-St-NW-20016/home/9956576,BRIGHT MLS,DCDC2133720,N,Y,38.9461016,-77.0843041
PAST SALE,March-28-2024,Single Family Residential,3720 Livingston St NW,Washington,DC,20015,1980000,4,3.5,Chevy Chase,3000,6000,1925,,660,,Sold,,,https://www.redfin.com/DC/Washington/3720-Livingston-St-NW-20015/home/9970823,BRIGHT MLS,DCDC2128954,N,Y,38.9628678,-77.0729567
PAST SALE,June-3-2024,Single Family Residential,6320 Piney Branch Rd NW,Washington,DC,20011,1510000,7,6.0,BRIGHTWOOD,5400,7991,2023,,280,,Sold,,,https://www.redfin.com/DC/Washington/6320-Piney-Branch-Rd-NW-20011/home/177099471,BRIGHT MLS,DCDC2134938,N,Y,38.967014,-77.028702
PAST SALE,March-29-2024,Single Family Residential,1319 Emerson St NW,Washington,DC,20011,900000,3,2.5,16th Street Heights,1858,7100,1920,,484,,Sold,,,https://www.redfin.com/DC/Washington/1319-Emerson-St-NW-20011/home/10024954,BRIGHT MLS,DCDC2131076,N,Y,38.9499513,-77.0315816
PAST SALE,April-26-2024,Single Family Residential,4118 Legation St NW,Washington,DC,20015,950000,2,2.0,Chevy Chase,1353,4582,1944,,702,,Sold,,,https://www.redfin.com/DC/Washington/4118-Legation-St-NW-20015/home/9961723,BRIGHT MLS,DCDC2126326,N,Y,38.9618216,-77.0815276
PAST SALE,April-26-2024,Townhouse,1326 Ingraham St NW,Washington,DC,20011,995000,4,3.0,16th Street Heights,2508,5733,1926,,397,,Sold,,,https://www.redfin.com/DC/Washington/1326-Ingraham-St-NW-20011/home/10024729,BRIGHT MLS,DCDC2132076,N,Y,38.953938,-77.0307541
PAST SALE,May-31-2024,Single Family Residential,4339 Windom Pl NW,Washington,DC,20016,1237000,3,1.5,American University,2163,4539,1950,,572,,Sold,,,https://www.redfin.com/DC/Washington/4339-Windom-Pl-NW-20016/home/9956610,BRIGHT MLS,DCDC2139112,N,Y,38.9457363,-77.0853382
PAST SALE,March-26-2024,Single Family Residential,1205 Fern St NW,Washington,DC,20012,980000,6,3.0,Shepherd Park,3066,5531,1924,,320,,Sold,,,https://www.redfin.com/DC/Washington/1205-Fern-St-NW-20012/home/10036562,BRIGHT MLS,DCDC2126284,N,Y,38.9782035,-77.0283348
PAST SALE,March-8-2024,Condo/Co-op,2939 Van Ness St NW #747,Washington,DC,20008,550000,2,2.0,Forest Hills,1225,,1964,,449,1457,Sold,,,https://www.redfin.com/DC/Washington/2939-Van-Ness-St-NW-20008/unit-747/home/9983405,BRIGHT MLS,DCDC2125586,N,Y,38.9444021,-77.0601378
PAST SALE,April-19-2024,Single Family Residential,3737 Kanawha St NW,Washington,DC,20015,1320000,4,3.0,Chevy Chase,2671,4202,1913,,494,,Sold,,,https://www.redfin.com/DC/Washington/3737-Kanawha-St-NW-20015/home/9971281,BRIGHT MLS,DCDC2132324,N,Y,38.9605001,-77.0718038
PAST SALE,April-8-2024,Townhouse,1383 Rittenhouse St NW,Washington,DC,20011,900000,4,3.5,Brightwood,2360,1840,1932,,381,,Sold,,,https://www.redfin.com/DC/Washington/1383-Rittenhouse-St-NW-20011/home/10023454,BRIGHT MLS,DCDC2131120,N,Y,38.9656417,-77.0325753
PAST SALE,May-30-2024,Townhouse,3724 Jocelyn St NW,Washington,DC,20015,1422500,5,3.5,Chevy Chase,2700,1938,1913,,527,,Sold,,,https://www.redfin.com/DC/Washington/3724-Jocelyn-St-NW-20015/home/9971208,BRIGHT MLS,DCDC2135202,N,Y,38.9595114,-77.0712328
PAST SALE,May-29-2024,Single Family Residential,2959 Northampton St NW,Washington,DC,20015,3500000,7,6.5,Chevy Chase,6350,8886,1939,,551,,Sold,,,https://www.redfin.com/DC/Washington/2959-Northampton-St-NW-20015/home/190628933,BRIGHT MLS,DCDC2139262,N,Y,38.9659596,-77.0614849
PAST SALE,May-3-2024,Condo/Co-op,4444 Connecticut Ave NW #201,Washington,DC,20008,525000,2,1.0,North Cleveland Park,875,,1982,,600,421,Sold,,,https://www.redfin.com/DC/Washington/4444-Connecticut-Ave-NW-20008/unit-201/home/9975775,BRIGHT MLS,DCDC2132646,N,Y,38.9477647,-77.065961
PAST SALE,May-31-2024,Single Family Residential,3110 Oliver St NW,Washington,DC,20015,1190000,3,2.0,Chevy Chase,2025,3280,1932,,588,,Sold,,,https://www.redfin.com/DC/Washington/3110-Oliver-St-NW-20015/home/9993716,BRIGHT MLS,DCDC2129766,N,Y,38.9665765,-77.0620004
PAST SALE,April-16-2024,Multi-Family (2-4 Unit),4347 Harrison St NW,Washington,DC,20015,2025000,,,American University,3360,3260,1937,,603,,Sold,,,https://www.redfin.com/DC/Washington/4347-Harrison-St-NW-20015/home/9957204,BRIGHT MLS,DCDC2126152,N,Y,38.9572199,-77.0858752
PAST SALE,May-15-2024,Single Family Residential,4624 Asbury Pl NW,Washington,DC,20016,2750000,7,4.5,American University,5322,7170,1964,,517,,Sold,,,https://www.redfin.com/DC/Washington/4624-Asbury-Pl-NW-20016/home/9946107,BRIGHT MLS,DCDC2125250,N,Y,38.9505849,-77.0958163
PAST SALE,March-20-2024,Single Family Residential,6243 29th St NW,Washington,DC,20015,1500000,4,3.5,Chevy Chase,3055,8750,1962,,491,,Sold,,,https://www.redfin.com/DC/Washington/6243-29th-St-NW-20015/home/9994816,BRIGHT MLS,DCDC2127292,N,Y,38.9713633,-77.0575032
PAST SALE,May-20-2024,Single Family Residential,5479 30th St NW,Washington,DC,20015,1525000,4,3.5,Chevy Chase,2079,6080,1938,,734,,Sold,,,https://www.redfin.com/DC/Washington/5479-30th-St-NW-20015/home/9993283,BRIGHT MLS,DCDC2132172,N,Y,38.9633134,-77.0601678
PAST SALE,March-11-2024,Townhouse,4411 Iowa Ave NW,Washington,DC,20011,1150000,4,3.5,16th Street Heights,2704,2100,1917,,425,,Sold,,,https://www.redfin.com/DC/Washington/4411-Iowa-Ave-NW-20011/home/10034786,BRIGHT MLS,DCDC2124834,N,Y,38.9444611,-77.0274645
PAST SALE,March-15-2024,Townhouse,4605 15th St NW,Washington,DC,20011,1575000,5,4.5,16th Street Heights,3500,2038,1921,,450,,Sold,,,https://www.redfin.com/DC/Washington/4605-15th-St-NW-20011/home/10016891,BRIGHT MLS,DCDC2124098,N,Y,38.9465385,-77.0343691
PAST SALE,April-26-2024,Condo/Co-op,1446 Tuckerman St NW #108,Washington,DC,20011,182000,1,1.0,Brightwood,,,1941,,,469,Sold,,,https://www.redfin.com/DC/Washington/1446-Tuckerman-St-NW-20011/unit-108/home/189824622,BRIGHT MLS,DCDC2129470,N,Y,38.9674259,-77.0351625
PAST SALE,May-3-2024,Single Family Residential,2757 Brandywine St NW,Washington,DC,20008,1900000,4,4.5,Forest Hills,3600,7816,1928,,528,,Sold,,,https://www.redfin.com/DC/Washington/2757-Brandywine-St-NW-20008/home/9991976,BRIGHT MLS,DCDC2126498,N,Y,38.9499825,-77.0555452
PAST SALE,May-25-2024,Townhouse,827 Delafield Pl NW,Washington,DC,20011,800000,3,3.5,Petworth,1928,1620,1925,,415,,Sold,,,https://www.redfin.com/DC/Washington/827-Delafield-Pl-NW-20011/home/10040733,BRIGHT MLS,DCDC2131246,N,Y,38.9492319,-77.0248092
PAST SALE,,Condo/Co-op,2939 Van Ness St NW #1209,Washington,DC,20008,320000,1,1.0,,753,,1964,,425,,,,,https://www.redfin.com/DC/Washington/2939-Van-Ness-St-NW-20008/unit-1209/home/9983271,,,N,Y,38.9444021,-77.0601378
PAST SALE,April-15-2024,Condo/Co-op,4301 Military Rd NW #305,Washington,DC,20015,1095000,2,2.0,Chevy Chase,1440,,2007,,760,1564,Sold,,,https://www.redfin.com/DC/Washington/4301-Military-Rd-NW-20015/unit-305/home/12531036,BRIGHT MLS,DCDC2125910,N,Y,38.9614788,-77.0842816
PAST SALE,March-13-2024,Single Family Residential,4406 35th St NW,Washington,DC,20008,1670000,5,4.0,North Cleveland Park,2775,3705,1951,,602,,Sold,,,https://www.redfin.com/DC/Washington/4406-35th-St-NW-20008/home/9975660,BRIGHT MLS,DCDC2124528,N,Y,38.9466315,-77.0675767
PAST SALE,May-9-2024,Single Family Residential,2905 Ellicott St NW,Washington,DC,20008,2300000,4,4.0,Forest Hills,3065,12258,1961,,750,,Sold,,,https://www.redfin.com/DC/Washington/2905-Ellicott-St-NW-20008/home/9992322,BRIGHT MLS,DCDC2131672,N,Y,38.9538879,-77.0591686
PAST SALE,April-19-2024,Townhouse,4115 Fessenden St NW,Washington,DC,20016,1875000,4,3.5,Chevy Chase,1948,6868,1910,,963,,Sold,,,https://www.redfin.com/DC/Washington/4115-Fessenden-St-NW-20016/home/9961258,BRIGHT MLS,DCDC2128914,N,Y,38.9548827,-77.0812887
PAST SALE,April-30-2024,Single Family Residential,1000 Main Dr NW,Washington,DC,20012,1320000,8,5.0,Brightwood,6469,15157,1910,,204,,Sold,,,https://www.redfin.com/DC/Washington/1000-Main-Dr-NW-20012/home/188125388,BRIGHT MLS,DCDC2127314,N,Y,38.973336,-77.027275
PAST SALE,March-12-2024,Single Family Residential,1341 Hamilton St NW,Washington,DC,20011,1100000,4,3.0,16th Street Heights,2246,5467,1936,,490,,Sold,,,https://www.redfin.com/DC/Washington/1341-Hamilton-St-NW-20011/home/10024790,BRIGHT MLS,DCDC2125368,N,Y,38.9531933,-77.0314161
PAST SALE,May-3-2024,Single Family Residential,4527 Warren St NW,Washington,DC,20016,2260000,6,4.5,American University,3472,3646,1936,,651,,Sold,,,https://www.redfin.com/DC/Washington/4527-Warren-St-NW-20016/home/9948399,BRIGHT MLS,DCDC2123602,N,Y,38.9449831,-77.0897089
PAST SALE,April-9-2024,Condo/Co-op,4319 Harrison St NW #4,Washington,DC,20015,679000,2,2.5,American University,907,,2022,,749,319,Sold,,,https://www.redfin.com/DC/Washington/4319-Harrison-St-NW-20015/unit-4/home/179430642,BRIGHT MLS,DCDC2127420,N,Y,38.9572401,-77.0850525
PAST SALE,April-23-2024,Single Family Residential,4708 Blagden Ave NW,Washington,DC,20011,2087500,5,4.5,Crestwood,4200,5338,1929,,497,,Sold,,,https://www.redfin.com/DC/Washington/4708-Blagden-Ave-NW-20011/home/10012743,BRIGHT MLS,DCDC2126894,N,Y,38.9480577,-77.0398906
PAST SALE,March-29-2024,Townhouse,831 Crittenden St NW,Washington,DC,20011,849000,4,3.5,Petworth,1440,2695,1922,,590,,Sold,,,https://www.redfin.com/DC/Washington/831-Crittenden-St-NW-20011/home/10041089,BRIGHT MLS,DCDC2126088,N,Y,38.9474269,-77.0247374
PAST SALE,March-25-2024,Single Family Residential,4718 Brandywine St NW,Washington,DC,20016,1950000,5,3.5,American University,2660,4330,1947,,733,,Sold,,,https://www.redfin.com/DC/Washington/4718-Brandywine-St-NW-20016/home/9947468,BRIGHT MLS,DCDC2124572,N,Y,38.9494847,-77.0934948
PAST SALE,May-2-2024,Condo/Co-op,4600 Connecticut Ave NW #905,Washington,DC,20008,390000,2,2.0,Wakefield,1049,,1948,,372,1093,Sold,,,https://www.redfin.com/DC/Washington/4600-Connecticut-Ave-NW-20008/unit-905/home/9976700,BRIGHT MLS,DCDC2127568,N,Y,38.9502949,-77.0675324
PAST SALE,April-2-2024,Single Family Residential,1241 Geranium St NW,Washington,DC,20012,2350000,6,5.5,Shepherd Park,4716,8550,2023,,498,,Sold,,,https://www.redfin.com/DC/Washington/1241-Geranium-St-NW-20012/home/10036678,BRIGHT MLS,DCDC2116800,N,Y,38.9796077,-77.0294144
PAST SALE,May-31-2024,Single Family Residential,1358 Ingraham St NW,Washington,DC,20011,1299950,5,4.5,16th Street Heights,3020,4000,1921,,430,,Sold,,,https://www.redfin.com/DC/Washington/1358-Ingraham-St-NW-20011/home/10024804,BRIGHT MLS,DCDC2127162,N,Y,38.9539065,-77.0331179
PAST SALE,March-28-2024,Condo/Co-op,7175 12th St NW #101,Washington,DC,20012,509900,1,1.0,SHEPHERD PARK,746,,2023,,684,388,Sold,,,https://www.redfin.com/DC/Washington/7175-12th-St-NW-20012/unit-101/home/189474204,BRIGHT MLS,DCDC2125396,N,Y,38.97692,-77.0276172
PAST SALE,May-15-2024,Single Family Residential,1501 Farragut St NW,Washington,DC,20011,1900000,6,4.5,16th Street Heights,5215,10615,1910,,364,,Sold,,,https://www.redfin.com/DC/Washington/1501-Farragut-St-NW-20011/home/10017436,BRIGHT MLS,DCDC2124608,N,Y,38.9510089,-77.035056
PAST SALE,March-8-2024,Single Family Residential,1263 Van Buren St NW,Washington,DC,20012,655000,4,2.0,Brightwood,1804,3600,1940,,363,,Sold,,,https://www.redfin.com/DC/Washington/1263-Van-Buren-St-NW-20012/home/10036395,BRIGHT MLS,DCDC2120288,N,Y,38.97015,-77.029257
PAST SALE,March-8-2024,Condo/Co-op,7175 12th St NW #603,Washington,DC,20012,875000,2,2.5,SHEPHERD PARK,1130,,2023,,774,645,Sold,,,https://www.redfin.com/DC/Washington/7175-12th-St-NW-20012/unit-603/home/189474150,BRIGHT MLS,DCDC2125376,N,Y,38.97692,-77.0276172
PAST SALE,May-29-2024,Condo/Co-op,5885 Colorado Ave NW #212,Washington,DC,20011,265000,2,2.0,16th Street Heights,996,,1900,,266,791,Sold,,,https://www.redfin.com/DC/Washington/5885-Colorado-Ave-NW-20011/unit-212/home/12530346,BRIGHT MLS,DCDC2128054,N,Y,38.9610274,-77.028548
PAST SALE,March-8-2024,Townhouse,1312 Gallatin St NW,Washington,DC,20011,1525000,5,4.5,16th Street Heights,3500,5226,1917,,436,,Sold,,,https://www.redfin.com/DC/Washington/1312-Gallatin-St-NW-20011/home/10024914,BRIGHT MLS,DCDC2120546,N,Y,38.9516738,-77.0307414
PAST SALE,May-28-2024,Condo/Co-op,5406 Connecticut Ave NW #606,Washington,DC,20015,275000,1,1.0,Chevy Chase,794,,1963,,346,888,Sold,,,https://www.redfin.com/DC/Washington/5406-Connecticut-Ave-NW-20015/unit-606/home/9970118,BRIGHT MLS,DCDC2128346,N,Y,38.9614498,-77.0739356
PAST SALE,May-16-2024,Condo/Co-op,7175 12th St NW Unit 219,Washington,DC,20012,472900,1,1.0,SHEPHERD PARK,658,,2023,,719,388,Sold,,,https://www.redfin.com/DC/Washington/7175-12th-St-NW-20012/unit-219/home/189474203,BRIGHT MLS,DCDC2125390,N,Y,38.97692,-77.0276172
PAST SALE,May-29-2024,Single Family Residential,6214 8th St NW,Washington,DC,20011,920000,4,4.5,Brightwood,2400,4400,1923,,383,,Sold,,,https://www.redfin.com/DC/Washington/6214-8th-St-NW-20011/home/10038690,BRIGHT MLS,DCDC2129650,N,Y,38.9658446,-77.0244886
PAST SALE,May-14-2024,Townhouse,804 Kennedy St NW,Washington,DC,20011,650000,4,3.0,Petworth,2451,1980,1912,,265,,Sold,,,https://www.redfin.com/DC/Washington/804-Kennedy-St-NW-20011/home/188214182,BRIGHT MLS,DCDC2116806,N,Y,38.9561246,-77.0243902
PAST SALE,April-26-2024,Condo/Co-op,1117 Allison St NW #1,Washington,DC,20011,530000,2,2.5,16th Street Heights,1167,,1915,,454,227,Sold,,,https://www.redfin.com/DC/Washington/1117-Allison-St-NW-20011/unit-1/home/109496971,BRIGHT MLS,DCDC2121884,N,Y,38.9453395,-77.0274074
PAST SALE,May-10-2024,Single Family Residential,3060 Ellicott St NW,Washington,DC,20008,7975000,6,7.5,Forest Hills,10550,17625,2020,,756,,Sold,,,https://www.redfin.com/DC/Washington/3060-Ellicott-St-NW-20008/home/9992212,BRIGHT MLS,DCDC2113416,N,Y,38.9529634,-77.0631049
PAST SALE,April-9-2024,Single Family Residential,4605 46th St NW,Washington,DC,20016,1840000,4,4.5,American University,1665,4400,1935,,1105,,Sold,,,https://www.redfin.com/DC/Washington/4605-46th-St-NW-20016/home/9948623,BRIGHT MLS,DCDC2115836,N,Y,38.9499855,-77.090329
PAST SALE,March-27-2024,Single Family Residential,7317 Alaska Ave NW,Washington,DC,20012,1350000,3,3.5,Shepherd Park,3086,6250,1923,,437,,Sold,,,https://www.redfin.com/DC/Washington/7317-Alaska-Ave-NW-20012/home/10022606,BRIGHT MLS,DCDC2115852,N,Y,38.9790266,-77.0315511
PAST SALE,May-30-2024,Condo/Co-op,939 Longfellow St NW #209,Washington,DC,20011,235000,1,1.0,Petworth,640,,1940,,367,451,Sold,,,https://www.redfin.com/DC/Washington/939-Longfellow-St-NW-20011/unit-209/home/10345508,BRIGHT MLS,DCDC2124254,N,Y,38.9575666,-77.0272775
PAST SALE,March-19-2024,Single Family Residential,3421 Northampton St NW,Washington,DC,20015,2450000,6,5.5,Chevy Chase,4578,5300,1922,,535,,Sold,,,https://www.redfin.com/DC/Washington/3421-Northampton-St-NW-20015/home/9978642,BRIGHT MLS,DCDC2116964,N,Y,38.9660165,-77.0695104
PAST SALE,April-18-2024,Condo/Co-op,2939 Van Ness St NW #820,Washington,DC,20008,294000,1,1.0,Forest Hills,790,,1964,,372,976,Sold,,,https://www.redfin.com/DC/Washington/2939-Van-Ness-St-NW-20008/unit-820/home/9982850,BRIGHT MLS,DCDC2113332,N,Y,38.9444021,-77.0601378
PAST SALE,April-26-2024,Single Family Residential,3326 Quesada St NW,Washington,DC,20015,3920000,7,8.0,Chevy Chase,8186,10502,1892,,479,,Sold,,,https://www.redfin.com/DC/Washington/3326-Quesada-St-NW-20015/home/9979852,BRIGHT MLS,DCDC2107428,N,Y,38.96845,-77.0680612
PAST SALE,April-29-2024,Condo/Co-op,4301 Military Rd NW #505,Washington,DC,20015,1140000,2,2.0,Chevy Chase,1440,,2007,,792,1490,Sold,,,https://www.redfin.com/DC/Washington/4301-Military-Rd-NW-20015/unit-505/home/12531398,BRIGHT MLS,DCDC2065618,N,Y,38.9614931,-77.0843059
PAST SALE,,Single Family Residential,730 Sheridan St NW,Washington,DC,20011,455000,3,1.0,,1054,1718,1926,,432,,,,,https://www.redfin.com/DC/Washington/730-Sheridan-St-NW-20011/home/10052916,,,N,Y,38.9659555,-77.0236903
PAST SALE,,Single Family Residential,6230 33rd St NW,Washington,DC,20015,1165500,3,3.0,,1555,5687,1934,,750,,,,,https://www.redfin.com/DC/Washington/6230-33rd-St-NW-20015/home/11747402,,,N,Y,38.9721132,-77.0666774
PAST SALE,,Single Family Residential,6139 31st St NW,Washington,DC,20015,2625000,5,4.0,,4376,9625,1919,,600,,,,,https://www.redfin.com/DC/Washington/6139-31st-St-NW-20015/home/9994662,,,N,Y,38.9711867,-77.0616407
PAST SALE,,Single Family Residential,4407 Garrison St NW,Washington,DC,20016,1265000,3,2.0,,1228,5731,1933,,1030,,,,,https://www.redfin.com/DC/Washington/4407-Garrison-St-NW-20016/home/9949116,,,N,Y,38.9561402,-77.086968
PAST SALE,,Single Family Residential,4317 Fessenden St NW,Washington,DC,20016,1050000,3,1.0,,1144,9649,1922,,918,,,,,https://www.redfin.com/DC/Washington/4317-Fessenden-St-NW-20016/home/9957140,,,N,Y,38.9549077,-77.0848965
PAST SALE,,Single Family Residential,4918 43rd St NW,Washington,DC,20016,1000000,2,1.5,,988,5488,1959,,1012,,,,,https://www.redfin.com/DC/Washington/4918-43rd-St-NW-20016/home/9957135,,,N,Y,38.954099,-77.084118
PAST SALE,,Townhouse,1608 Allison St NW,Washington,DC,20011,1450000,4,2.0,,2248,4442,1922,,645,,,,,https://www.redfin.com/DC/Washington/1608-Allison-St-NW-20011/home/10012453,,,N,Y,38.9448757,-77.0374553
PAST SALE,,Condo/Co-op,816 Fern Pl NW Unit 21D,Washington,DC,20012,685000,2,2.5,,1382,,2018,,496,,,,,https://www.redfin.com/DC/Washington/816-Fern-Pl-NW-20012/unit-21D/home/167636467,,,N,Y,38.9781753,-77.0258948
PAST SALE,,Townhouse,1406 Buchanan St NW,Washington,DC,20011,735000,3,1.0,,1320,3305,1913,,557,,,,,https://www.redfin.com/DC/Washington/1406-Buchanan-St-NW-20011/home/10016790,,,N,Y,38.945984,-77.0333935
PAST SALE,,Single Family Residential,3910 Jenifer St NW,Washington,DC,20015,1550000,3,1.0,,1494,5140,1921,,1037,,,,,https://www.redfin.com/DC/Washington/3910-Jenifer-St-NW-20015/home/9962349,,,N,Y,38.9588242,-77.0787747
PAST SALE,,Multi-Family (5+ Unit),4520 Georgia Ave NW,Washington,DC,20011,3000000,,13.0,,13632,6000,1925,,220,,,,,https://www.redfin.com/DC/Washington/4520-Georgia-Ave-NW-20011/home/10035015,,,N,Y,38.9457145,-77.026806
