SALE TYPE,SOLD DATE,PROPERTY TYPE,ADDRESS,CITY,STATE OR PROVINCE,ZIP OR POSTAL CODE,PRICE,BEDS,BATHS,LOCATION,SQUARE FEET,LOT SIZE,YEAR BUILT,DAYS ON MARKET,$/SQUARE FEET,HOA/MONTH,STATUS,NEXT OPEN HOUSE START TIME,NEXT OPEN HOUSE END TIME,URL (SEE https://www.redfin.com/buy-a-home/comparative-market-analysis FOR INFO ON PRICING),SOURCE,MLS#,FAVORITE,INTERESTED,LATITUDE,LONGITUDE
"In accordance with local MLS rules, some MLS listings are not included in the download"
PAST SALE,March-22-2024,Condo/Co-op,989 S Buchanan St #302,Arlington,VA,22204,505000,2,2.0,TRAFALGAR FLATS,919,,2019,,550,420,Sold,,,https://www.redfin.com/VA/Arlington/989-S-Buchanan-St-22204/unit-302/home/167753857,BRIGHT MLS,VAAR2040628,N,Y,38.856969,-77.1084525
PAST SALE,March-15-2024,Condo/Co-op,2705 Arlington Blvd #102,Arlington,VA,22201,335000,1,1.0,CAMBRIDGE COURTS,642,,1944,,522,348,Sold,,,https://www.redfin.com/VA/Arlington/2705-Arlington-Blvd-22201/unit-102/home/11255820,BRIGHT MLS,VAAR2040432,N,Y,38.8742309,-77.0882552
PAST SALE,March-11-2024,Condo/Co-op,816 S Arlington Mill Dr S Unit 5-103,Arlington,VA,22204,291000,2,1.0,PARK GLEN,748,,1947,,389,492,Sold,,,https://www.redfin.com/VA/Arlington/816-S-Arlington-Mill-Dr-22204/unit-5-103/home/11259290,BRIGHT MLS,VAAR2039508,N,Y,38.8590476,-77.1130519
PAST SALE,May-31-2024,Condo/Co-op,4600 S Four Mile Run Dr #1230,Arlington,VA,22204,275000,2,1.0,THE CARLTON,1084,,1965,,254,1003,Sold,,,https://www.redfin.com/VA/Arlington/4600-S-Four-Mile-Run-Dr-22204/unit-1230/home/11266625,BRIGHT MLS,VAAR2042424,N,Y,38.8548626,-77.1069563
PAST SALE,February-29-2024,Townhouse,214 S Courthouse Rd,Arlington,VA,22204,647500,3,2.0,FORT CRAIG,1512,2835,1939,,428,,Sold,,,https://www.redfin.com/VA/Arlington/214-S-Courthouse-Rd-22204/home/11262754,BRIGHT MLS,VAAR2039578,N,Y,38.8710297,-77.081921
PAST SALE,April-8-2024,Single Family Residential,1407 S Columbus St,Arlington,VA,22204,835000,3,2.0,BARCROFT FOREST,1900,6306,1951,,439,,Sold,,,https://www.redfin.com/VA/Arlington/1407-S-Columbus-St-22204/home/11264596,BRIGHT MLS,VAAR2040626,N,Y,38.8497334,-77.1074593
PAST SALE,March-22-2024,Single Family Residential,5721 7th St N,Arlington,VA,22205,1075000,4,3.0,BONAIR,2035,6000,1955,,528,,Sold,,,https://www.redfin.com/VA/Arlington/5721-7th-St-N-22205/home/11242875,BRIGHT MLS,VAAR2040140,N,Y,38.8732627,-77.1306069
PAST SALE,April-3-2024,Condo/Co-op,24 S Old Glebe Rd Unit 105-C,Arlington,VA,22204,280000,2,1.0,ARBORS OF ARL,868,,1942,,323,438,Sold,,,https://www.redfin.com/VA/Arlington/24-S-Old-Glebe-Rd-22204/unit-105C/home/11262125,BRIGHT MLS,VAAR2041270,N,Y,38.8695489,-77.0987292
PAST SALE,February-6-2024,Townhouse,2601 16th St S #609,Arlington,VA,22204,460000,2,1.0,ARLINGTON VILLAGE,994,,1939,,463,548,Sold,,,https://www.redfin.com/VA/Arlington/2601-16th-St-S-22204/unit-609/home/11273351,BRIGHT MLS,VAAR2038892,N,Y,38.8578956,-77.0831941
PAST SALE,March-29-2024,Single Family Residential,5328 5th St S,Arlington,VA,22204,1050000,4,3.5,GLEN CARLIN,2475,6493,1963,,424,,Sold,,,https://www.redfin.com/VA/Arlington/5328-5th-St-S-22204/home/11258750,BRIGHT MLS,VAAR2040582,N,Y,38.8622447,-77.120949
PAST SALE,May-7-2024,Condo/Co-op,2501-D S Walter Reed Dr Unit D,Arlington,VA,22206,389900,2,1.0,THE ARLINGTON,800,,1950,,487,351,Sold,,,https://www.redfin.com/VA/Arlington/2501-S-Walter-Reed-Dr-22206/unit-D/home/11266847,BRIGHT MLS,VAAR2041688,N,Y,38.8443743,-77.0996522
PAST SALE,April-23-2024,Single Family Residential,5126 11th St S,Arlington,VA,22204,575000,2,1.0,COLUMBIA FOREST,1080,5000,1942,,532,,Sold,,,https://www.redfin.com/VA/Arlington/5126-11th-St-S-22204/home/11265428,BRIGHT MLS,VAAR2040996,N,Y,38.8518281,-77.1120118
PAST SALE,April-23-2024,Townhouse,2024 S Oakland St,Arlington,VA,22204,607500,3,2.5,FORT BARNARD HEIGHTS,1313,3155,1945,,463,,Sold,,,https://www.redfin.com/VA/Arlington/2024-S-Oakland-St-22204/home/11271702,BRIGHT MLS,VAAR2040712,N,Y,38.8504161,-77.0917621
PAST SALE,May-31-2024,Condo/Co-op,5300 Columbia Pike #403,Arlington,VA,22204,290000,1,1.5,CARLYLE HOUSE,939,,1974,,309,604,Sold,,,https://www.redfin.com/VA/Arlington/5300-Columbia-Pike-22204/unit-403/home/11265229,BRIGHT MLS,VAAR2041440,N,Y,38.8538412,-77.1165606
PAST SALE,February-26-2024,Single Family Residential,3918 8th St S,Arlington,VA,22204,1219000,4,3.5,ALCOVA HEIGHTS,3800,8911,1925,,321,,Sold,,,https://www.redfin.com/VA/Arlington/3918-8th-St-S-22204/home/11261283,BRIGHT MLS,VAAR2036090,N,Y,38.8625371,-77.0993207
PAST SALE,,Condo/Co-op,4606 28th Rd S Unit B,Arlington,VA,22206,410000,2,1.0,,800,,1950,,513,,,,,https://www.redfin.com/VA/Arlington/4606-28th-Rd-S-22206/unit-B/home/11267083,,,N,Y,38.8429374,-77.0980972
PAST SALE,December-22-2023,Single Family Residential,811 N Harrison St,Arlington,VA,22205,1975000,5,4.5,BONAIR,5026,6900,2023,,393,,Sold,,,https://www.redfin.com/VA/Arlington/811-N-Harrison-St-22205/home/11242567,BRIGHT MLS,VAAR2039156,N,Y,38.8760688,-77.125528
PAST SALE,,Single Family Residential,125 S Pershing Dr,Arlington,VA,22204,925000,3,2.5,,1494,6166,1950,,619,,,,,https://www.redfin.com/VA/Arlington/125-S-Pershing-Dr-22204/home/11260519,,,N,Y,38.8658976,-77.1099751
PAST SALE,May-2-2024,Condo/Co-op,110 N George Mason Dr Unit 110-4,Arlington,VA,22203,180000,1,1.0,ARLINGTON OAKS,651,,1940,,276,487,Sold,,,https://www.redfin.com/VA/Arlington/110-N-George-Mason-Dr-22203/unit-110-4/home/11257852,BRIGHT MLS,VAAR2042684,N,Y,38.8699426,-77.1074219
PAST SALE,March-25-2024,Townhouse,2454 S Walter Reed Dr #3,Arlington,VA,22206,700000,3,2.5,WINDGATE OF ARL,1088,,1979,,643,480,Sold,,,https://www.redfin.com/VA/Arlington/2454-S-Walter-Reed-Dr-22206/unit-3/home/11264917,BRIGHT MLS,VAAR2042302,N,Y,38.8462363,-77.1000919
PAST SALE,April-17-2024,Townhouse,2414 S Walter Reed Dr Unit A,Arlington,VA,22206,635000,2,3.5,WINDGATE OF ARL,1836,,1979,,346,480,Sold,,,https://www.redfin.com/VA/Arlington/2414-S-Walter-Reed-Dr-22206/unit-A/home/12386649,BRIGHT MLS,VAAR2044570,N,Y,38.8463372,-77.0983092
PAST SALE,April-17-2024,Townhouse,2414 S Walter Reed Dr S,Arlington,VA,22206,635000,2,3.5,WINDGATE OF ARL,1224,,1979,,519,,Sold,,,https://www.redfin.com/VA/Arlington/2414-S-Walter-Reed-Dr-22206/home/190553284,BRIGHT MLS,VAAR2042764,N,Y,38.8463372,-77.0983092
PAST SALE,April-19-2024,Single Family Residential,697 N Emerson St,Arlington,VA,22203,1875800,5,4.5,BONAIR,1317,6168,2024,,1424,,Sold,,,https://www.redfin.com/VA/Arlington/697-N-Emerson-St-22203/home/11242490,BRIGHT MLS,VAAR2042844,N,Y,38.8757666,-77.1212764
PAST SALE,,Condo/Co-op,4600 S Four Mile Run Dr #1218,Arlington,VA,22204,252500,2,2.0,,1078,,1965,,234,,,,,https://www.redfin.com/VA/Arlington/4600-S-Four-Mile-Run-Dr-22204/unit-1218/home/11266613,,,N,Y,38.8548626,-77.1069563
PAST SALE,February-26-2024,Townhouse,2318 S Quincy St,Arlington,VA,22204,555000,2,2.5,CONCORD MEWS,1312,,1976,,423,667,Sold,,,https://www.redfin.com/VA/Arlington/2318-S-Quincy-St-22204/home/189552059,BRIGHT MLS,VAAR2039390,N,Y,38.846971,-77.0928937
PAST SALE,,Condo/Co-op,2318 S Quincy St #1,Arlington,VA,22204,555000,2,2.5,,1312,,1976,,423,,,,,https://www.redfin.com/VA/Arlington/2318-S-Quincy-St-22204/unit-1/home/11271829,,,N,Y,38.846971,-77.0928937
PAST SALE,April-19-2024,Townhouse,2616 S Kenmore Ct,Arlington,VA,22206,945000,4,3.5,SHIRLINGTON CREST,2049,970,2008,,461,174,Sold,,,https://www.redfin.com/VA/Arlington/2616-S-Kenmore-Ct-22206/home/16896984,BRIGHT MLS,VAAR2042788,N,Y,38.8449509,-77.0862674
PAST SALE,May-15-2024,Single Family Residential,2321 25th St S Unit 2-204,Arlington,VA,22206,469000,2,2.0,ARLINGTON,1056,,2003,,444,611,Sold,,,https://www.redfin.com/VA/Arlington/2321-25th-St-S-22206/unit-2-204/home/11282213,BRIGHT MLS,VAAR2043920,N,Y,38.8476589,-77.0770144
PAST SALE,,Single Family Residential,816 S Oakland St,Arlington,VA,22204,1100000,3,2.5,,2032,12433,1996,,541,,,,,https://www.redfin.com/VA/Arlington/816-S-Oakland-St-22204/home/11261318,,,N,Y,38.8626156,-77.0970616
PAST SALE,March-11-2024,Single Family Residential,1527 13th Rd S,Arlington,VA,22204,825000,3,2.0,SOUTHGATE,1362,4841,1942,,606,,Sold,,,https://www.redfin.com/VA/Arlington/1527-13th-Rd-S-22204/home/11273786,BRIGHT MLS,VAAR2032246,N,Y,38.8626842,-77.0705318
PAST SALE,May-1-2024,Single Family Residential,506 N Norwood St,Arlington,VA,22203,1600000,4,4.0,ASHTON HEIGHTS,3229,5450,1940,,496,,Sold,,,https://www.redfin.com/VA/Arlington/506-N-Norwood-St-22203/home/11256408,BRIGHT MLS,VAAR2043346,N,Y,38.8774614,-77.1031421
PAST SALE,,Condo/Co-op,2705 Arlington Blvd #104,Arlington,VA,22201,328000,1,1.0,,642,,1944,,511,,,,,https://www.redfin.com/VA/Arlington/2705-Arlington-Blvd-22201/unit-104/home/11255822,,,N,Y,38.8742309,-77.0882552
PAST SALE,,Single Family Residential,425 N Norwood St,Arlington,VA,22203,1060000,3,3.0,,1804,6961,1938,,588,,,,,https://www.redfin.com/VA/Arlington/425-N-Norwood-St-22203/home/11256626,,,N,Y,38.877004,-77.1025257
PAST SALE,April-26-2024,Townhouse,13 S Montague St,Arlington,VA,22204,745000,3,3.0,MANCHESTER SQUARE,2319,,1984,,321,620,Sold,,,https://www.redfin.com/VA/Arlington/13-S-Montague-St-22204/home/11258569,BRIGHT MLS,VAAR2043198,N,Y,38.8653705,-77.13618
PAST SALE,,Single Family Residential,606 S Woodstock St,Arlington,VA,22204,899000,,1.5,,1176,6000,1958,,764,,,,,https://www.redfin.com/VA/Arlington/606-S-Woodstock-St-22204/home/11260403,,,N,Y,38.8619418,-77.1130006
PAST SALE,May-28-2024,Condo/Co-op,801 S Greenbrier St #202,Arlington,VA,22204,365000,1,1.5,THE SIERRA,1000,,2005,,365,550,Sold,,,https://www.redfin.com/VA/Arlington/801-S-Greenbrier-St-22204/unit-202/home/11281580,BRIGHT MLS,VAAR2044460,N,Y,38.8578548,-77.1192458
PAST SALE,,Condo/Co-op,2518 S Arlington Mill Dr #4,Arlington,VA,22206,725000,2,2.5,,1240,,1982,,585,,,,,https://www.redfin.com/VA/Arlington/2518-S-Arlington-Mill-Dr-22206/unit-4/home/11267223,,,N,Y,38.8440532,-77.0961175
PAST SALE,,Condo/Co-op,2604 S Arlington Mill Dr #7,Arlington,VA,22206,310000,1,1.0,,622,,1983,,498,,,,,https://www.redfin.com/VA/Arlington/2604-S-Arlington-Mill-Dr-22206/unit-7/home/11267450,,,N,Y,38.8436749,-77.0939033
PAST SALE,May-24-2024,Townhouse,2546 S Walter Reed Dr Unit A,Arlington,VA,22206,700000,2,2.5,WINDGATE OF ARL,1634,,1979,,428,470,Sold,,,https://www.redfin.com/VA/Arlington/2546-S-Walter-Reed-Dr-22206/unit-A/home/148368861,BRIGHT MLS,VAAR2044568,N,Y,38.8444499,-77.1013974
PAST SALE,,Townhouse,3408 11th St S,Arlington,VA,22204,999999,4,4.5,,2511,1393,2015,,398,,,,,https://www.redfin.com/VA/Arlington/3408-11th-St-S-22204/home/92895336,,,N,Y,38.86013,-77.092223
PAST SALE,,Condo/Co-op,750 S Dickerson St #401,Arlington,VA,22204,281586,3,2.0,,1516,,1961,,186,,,,,https://www.redfin.com/VA/Arlington/750-S-Dickerson-St-22204/unit-401/home/11259225,,,N,Y,38.8591853,-77.1152479
PAST SALE,March-29-2024,Condo/Co-op,4141 N Henderson Rd #611,Arlington,VA,22203,595000,2,2.0,HYDE PARK,1702,,1973,,350,1460,Sold,,,https://www.redfin.com/VA/Arlington/4141-N-Henderson-Rd-22203/unit-611/home/11257303,BRIGHT MLS,VAAR2040738,N,Y,38.8758024,-77.1094008
PAST SALE,May-1-2024,Single Family Residential,606 N Jefferson St,Arlington,VA,22205,815000,2,2.0,BONAIR,1075,7503,1939,,758,,Sold,,,https://www.redfin.com/VA/Arlington/606-N-Jefferson-St-22205/home/11242734,BRIGHT MLS,VAAR2043250,N,Y,38.8734833,-77.1272626
PAST SALE,May-10-2024,Single Family Residential,3200 Olds Dr,Falls Church,VA,22041,1000000,4,3.0,CONGRESSIONAL ACRES,2098,15091,1962,,477,,Sold,,,https://www.redfin.com/VA/Falls-Church/3200-Olds-Dr-22041/home/9568394,BRIGHT MLS,VAFX2172860,N,Y,38.8614358,-77.1329012
PAST SALE,June-3-2024,Condo/Co-op,3101 S Manchester St #808,Falls Church,VA,22044,195000,1,1.0,WOODLAKE TOWERS CONDO,785,,1972,,248,581,Sold,,,https://www.redfin.com/VA/Falls-Church/3101-S-Manchester-St-22044/unit-808/home/9570547,BRIGHT MLS,VAFX2181268,N,Y,38.8628702,-77.1347498
PAST SALE,March-29-2024,Single Family Residential,1138 S Harrison St,Arlington,VA,22204,985000,4,4.0,VIRGINIA HEIGHTS,2528,7199,1950,,390,,Sold,,,https://www.redfin.com/VA/Arlington/1138-S-Harrison-St-22204/home/9656473,BRIGHT MLS,VAFX2167734,N,Y,38.8499754,-77.1175587
PAST SALE,,Condo/Co-op,2588 S Arlington Mill Dr #3,Arlington,VA,22206,475000,2,1.0,,912,,1983,,521,,,,,https://www.redfin.com/VA/Arlington/2588-S-Arlington-Mill-Dr-22206/unit-3/home/11267371,,,N,Y,38.8431747,-77.0950376
PAST SALE,,Condo/Co-op,4539 28th Rd S Unit 8-4,Arlington,VA,22206,330000,1,1.0,,673,,1983,,490,,,,,https://www.redfin.com/VA/Arlington/4539-28th-Rd-S-22206/unit-8-4/home/11267696,,,N,Y,38.8444392,-77.0976637
PAST SALE,May-2-2024,Single Family Residential,3621 14th St S,Arlington,VA,22204,650000,2,1.0,DOUGLAS PARK NEW ARL.,988,10888,1940,,658,,Sold,,,https://www.redfin.com/VA/Arlington/3621-14th-St-S-22204/home/11263744,BRIGHT MLS,VAAR2042830,N,Y,38.8571178,-77.0932674
PAST SALE,December-29-2023,Single Family Residential,4140 6th St S,Arlington,VA,22204,1825500,5,4.5,BARCROFT,4113,6925,2023,,444,,Sold,,,https://www.redfin.com/VA/Arlington/4140-6th-St-S-22204/home/11261007,BRIGHT MLS,VAAR2029846,N,Y,38.8634519,-77.1046256
PAST SALE,,Condo/Co-op,4500 S Four Mile Run Dr #1118,Arlington,VA,22204,405000,2,2.0,,1129,,2005,,359,,,,,https://www.redfin.com/VA/Arlington/4500-S-Four-Mile-Run-Dr-22204/unit-1118/home/11282113,,,N,Y,38.8540009,-77.1059089
PAST SALE,December-28-2023,Condo/Co-op,4500 S Four Mile Run Dr #1025,Arlington,VA,22204,400000,2,2.0,THE BRITTANY,1150,,2005,,348,698,Sold,,,https://www.redfin.com/VA/Arlington/4500-S-Four-Mile-Run-Dr-22204/unit-1025/home/11282086,BRIGHT MLS,VAAR2037938,N,Y,38.8540009,-77.1059089
PAST SALE,May-10-2024,Condo/Co-op,4500 S Four Mile Run Dr #228,Arlington,VA,22204,300000,1,1.0,CENTURY SOUTH,856,,2005,,350,530,Sold,,,https://www.redfin.com/VA/Arlington/4500-S-Four-Mile-Run-Dr-22204/unit-228/home/11281819,BRIGHT MLS,VAAR2042532,N,Y,38.8540009,-77.1059089
PAST SALE,,Condo/Co-op,4500 28th Rd S Unit 10-5,Arlington,VA,22206,462500,2,1.0,,1062,,1983,,435,,,,,https://www.redfin.com/VA/Arlington/4500-28th-Rd-S-22206/unit-10-5/home/11267804,,,N,Y,38.8448155,-77.0958662
PAST SALE,April-23-2024,Single Family Residential,118 N Wakefield St,Arlington,VA,22203,875000,3,2.0,ARLINGTON FOREST,1364,6259,1941,,641,,Sold,,,https://www.redfin.com/VA/Arlington/118-N-Wakefield-St-22203/home/11243741,BRIGHT MLS,VAAR2042204,N,Y,38.8691029,-77.1137151
PAST SALE,April-22-2024,Single Family Residential,3811 14th St S,Arlington,VA,22204,1100000,4,3.0,DOUGLAS PARK NEW ARL.,1676,11030,1950,,656,,Sold,,,https://www.redfin.com/VA/Arlington/3811-14th-St-S-22204/home/11263733,BRIGHT MLS,VAAR2039942,N,Y,38.8565713,-77.0953724
PAST SALE,,Condo/Co-op,1830 Columbia Pike #111,Arlington,VA,22204,200000,,1.0,,530,,1964,,377,,,,,https://www.redfin.com/VA/Arlington/1830-Columbia-Pike-22204/unit-111/home/11272659,,,N,Y,38.8647549,-77.075961
PAST SALE,January-24-2024,Single Family Residential,1326 S Pollard St,Arlington,VA,22204,670000,4,2.0,DOUGLAS PARK NEW ARL.,985,6230,1942,,680,,Sold,,,https://www.redfin.com/VA/Arlington/1326-S-Pollard-St-22204/home/11263710,BRIGHT MLS,VAAR2039548,N,Y,38.8564519,-77.0964644
PAST SALE,December-15-2023,Vacant Land,701 N Greenbrier St,Arlington,VA,22205,850000,,,BONAIR,,6600,,,,,Sold,,,https://www.redfin.com/VA/Arlington/701-N-Greenbrier-St-22205/home/11242538,BRIGHT MLS,VAAR2037864,N,Y,38.8756859,-77.1244592
PAST SALE,May-16-2024,Single Family Residential,504 N Kenmore St,Arlington,VA,22201,2340000,4,4.5,ASHTON HEIGHTS,3733,6532,2024,,627,,Sold,,,https://www.redfin.com/VA/Arlington/504-N-Kenmore-St-22201/home/11256466,BRIGHT MLS,VAAR2043794,N,Y,38.8784587,-77.0991677
PAST SALE,December-20-2023,Single Family Residential,913 N Larrimore St,Arlington,VA,22205,1500000,5,3.5,DOMINION HILLS,2600,6250,1946,,577,,Sold,,,https://www.redfin.com/VA/Arlington/913-N-Larrimore-St-22205/home/11241188,BRIGHT MLS,VAAR2031950,N,Y,38.8761641,-77.1371503
PAST SALE,April-19-2024,Townhouse,2600 16th St S #738,Arlington,VA,22204,345000,1,1.0,ARL VLG COURTYAR,712,,1939,,485,505,Sold,,,https://www.redfin.com/VA/Arlington/2600-16th-St-S-22204/unit-738/home/11273075,BRIGHT MLS,VAAR2041386,N,Y,38.8572264,-77.0828907
PAST SALE,May-2-2024,Single Family Residential,1723 S Fillmore St,Arlington,VA,22204,900000,3,3.0,JOHNSON'S HILL,2000,7222,1956,,450,,Sold,,,https://www.redfin.com/VA/Arlington/1723-S-Fillmore-St-22204/home/11271131,BRIGHT MLS,VAAR2041834,N,Y,38.8557625,-77.0849277
PAST SALE,December-20-2023,Single Family Residential,148 N Park Dr N,Arlington,VA,22203,975000,4,2.5,ARLINGTON FOREST,1824,6825,1941,,535,,Sold,,,https://www.redfin.com/VA/Arlington/148-N-Park-Dr-22203/home/11243783,BRIGHT MLS,VAAR2038264,N,Y,38.8695338,-77.1155373
PAST SALE,March-29-2024,Townhouse,1227 S Buchanan St,Arlington,VA,22204,580000,3,1.0,COLUMBIA FOREST,1182,4446,1952,,491,,Sold,,,https://www.redfin.com/VA/Arlington/1227-S-Buchanan-St-22204/home/11265962,BRIGHT MLS,VAAR2040660,N,Y,38.8529844,-77.1076376
PAST SALE,March-7-2024,Condo/Co-op,4500 S Four Mile Run Dr #713,Arlington,VA,22204,405000,2,2.0,THE BRITTANY,1150,,2005,,352,729,Sold,,,https://www.redfin.com/VA/Arlington/4500-S-Four-Mile-Run-Dr-22204/unit-713/home/11281973,BRIGHT MLS,VAAR2039550,N,Y,38.8540009,-77.1059089
PAST SALE,April-26-2024,Condo/Co-op,5010 7th Rd S #202,Arlington,VA,22204,315000,1,1.0,PARK SPRING,835,,1969,,377,477,Sold,,,https://www.redfin.com/VA/Arlington/5010-7th-Rd-S-22204/unit-202/home/11259466,BRIGHT MLS,VAAR2040406,N,Y,38.8594754,-77.1166665
PAST SALE,April-11-2024,Condo/Co-op,4083 S Four Mile Run Dr #103,Arlington,VA,22204,537500,2,2.0,WEST VILLAGE OF SHIRLINGTON,1135,,1966,,474,439,Sold,,,https://www.redfin.com/VA/Arlington/4083-S-Four-Mile-Run-Dr-22204/unit-103/home/12041830,BRIGHT MLS,VAAR2041646,N,Y,38.8489221,-77.0963497
PAST SALE,May-20-2024,Condo/Co-op,4501 Arlington Blvd #315,Arlington,VA,22203,235000,1,1.0,THE CHATHAM,533,,1965,,441,432,Sold,,,https://www.redfin.com/VA/Arlington/4501-Arlington-Blvd-22203/unit-315/home/11257656,BRIGHT MLS,VAAR2041392,N,Y,38.8692333,-77.1087161
PAST SALE,April-26-2024,Condo/Co-op,4600 S Four Mile Run Dr #842,Arlington,VA,22204,235000,1,1.0,THE CARLTON,881,,1965,,267,816,Sold,,,https://www.redfin.com/VA/Arlington/4600-S-Four-Mile-Run-Dr-22204/unit-842/home/11266469,BRIGHT MLS,VAAR2041690,N,Y,38.8548626,-77.1069563
PAST SALE,April-5-2024,Condo/Co-op,228 N Thomas St Unit 228-3,Arlington,VA,22203,245000,1,1.0,ARLINGTON OAKS,666,,1940,,368,487,Sold,,,https://www.redfin.com/VA/Arlington/228-N-Thomas-St-22203/unit-228-3/home/11258047,BRIGHT MLS,VAAR2040600,N,Y,38.8714739,-77.1056146
PAST SALE,February-5-2024,Townhouse,1021 S Barton St #126,Arlington,VA,22204,327000,1,1.0,ARLINGTON VILLAGE,800,,1939,,409,424,Sold,,,https://www.redfin.com/VA/Arlington/1021-S-Barton-St-22204/unit-126/home/11272376,BRIGHT MLS,VAAR2039044,N,Y,38.8628834,-77.0834048
PAST SALE,March-8-2024,Condo/Co-op,4500 S Four Mile Run Dr #1112,Arlington,VA,22204,403000,2,2.0,CENTURY SOUTH,1150,,2005,,350,715,Sold,,,https://www.redfin.com/VA/Arlington/4500-S-Four-Mile-Run-Dr-22204/unit-1112/home/11282107,BRIGHT MLS,VAAR2040120,N,Y,38.8540009,-77.1059089
PAST SALE,May-3-2024,Townhouse,754 N Vermont St,Arlington,VA,22203,700000,2,2.0,BALLSTON MEWS I,1131,,1982,,619,440,Sold,,,https://www.redfin.com/VA/Arlington/754-N-Vermont-St-22203/home/11242236,BRIGHT MLS,VAAR2041582,N,Y,38.878804,-77.11496
PAST SALE,February-7-2024,Single Family Residential,1415 S Quincy St,Arlington,VA,22204,899000,3,2.5,DOUGLAS PARK NEW ARL.,2332,8848,1997,,386,,Sold,,,https://www.redfin.com/VA/Arlington/1415-S-Quincy-St-22204/home/11263875,BRIGHT MLS,VAAR2039614,N,Y,38.8553603,-77.0968238
PAST SALE,May-24-2024,Condo/Co-op,4081 S Four Mile Run Dr #401,Arlington,VA,22204,520000,2,2.0,WEST VILLAGE OF SHIRLINGTON,1030,,1966,,505,419,Sold,,,https://www.redfin.com/VA/Arlington/4081-S-Four-Mile-Run-Dr-22204/unit-401/home/12041854,BRIGHT MLS,VAAR2042518,N,Y,38.8487916,-77.0966746
PAST SALE,February-15-2024,Single Family Residential,107 N Greenbrier St,Arlington,VA,22203,900000,3,1.5,ARLINGTON FOREST,1432,6534,1941,,628,,Sold,,,https://www.redfin.com/VA/Arlington/107-N-Greenbrier-St-22203/home/11243592,BRIGHT MLS,VAAR2038652,N,Y,38.8685491,-77.1225614
PAST SALE,January-26-2024,Condo/Co-op,4600 S Four Mile Run Dr #601,Arlington,VA,22204,251001,1,1.0,THE CARLTON,881,,1965,,285,780,Sold,,,https://www.redfin.com/VA/Arlington/4600-S-Four-Mile-Run-Dr-22204/unit-601/home/11266344,BRIGHT MLS,VAAR2037066,N,Y,38.854896,-77.1073748
PAST SALE,April-12-2024,Townhouse,5214 10th Pl S,Arlington,VA,22204,525000,2,1.0,VIRGINIA HEIGHTS ETC,879,3000,1950,,597,,Sold,,,https://www.redfin.com/VA/Arlington/5214-10th-Pl-S-22204/home/11265345,BRIGHT MLS,VAAR2041848,N,Y,38.8519677,-77.1156381
PAST SALE,May-31-2024,Single Family Residential,4141 6th St S,Arlington,VA,22204,890000,3,1.5,BARCROFT,1925,7473,1950,,462,,Sold,,,https://www.redfin.com/VA/Arlington/4141-6th-St-S-22204/home/11260711,BRIGHT MLS,VAAR2041504,N,Y,38.8638701,-77.10482
PAST SALE,January-12-2024,Condo/Co-op,4500 S Four Mile Run Dr #619,Arlington,VA,22204,391000,2,2.0,THE BRITTANY,1152,,2005,,339,710,Sold,,,https://www.redfin.com/VA/Arlington/4500-S-Four-Mile-Run-Dr-22204/unit-619/home/11281945,BRIGHT MLS,VAAR2037876,N,Y,38.8540009,-77.1059089
PAST SALE,March-15-2024,Condo/Co-op,4500 S Four Mile Run Dr #803,Arlington,VA,22204,393000,2,2.0,THE BRITTANY,1150,,2005,,342,709,Sold,,,https://www.redfin.com/VA/Arlington/4500-S-Four-Mile-Run-Dr-22204/unit-803/home/11281997,BRIGHT MLS,VAAR2039966,N,Y,38.8540009,-77.1059089
PAST SALE,April-22-2024,Condo/Co-op,4065 S Four Mile Run Dr #403,Arlington,VA,22204,390000,1,1.0,WEST VILLAGE OF SHIRLINGTON,956,,1966,,408,365,Sold,,,https://www.redfin.com/VA/Arlington/4065-S-Four-Mile-Run-Dr-22204/unit-403/home/12041768,BRIGHT MLS,VAAR2041988,N,Y,38.8481208,-77.0962827
PAST SALE,,Condo/Co-op,5118 Columbia Pike #1,Arlington,VA,22204,260000,2,1.0,,835,,1947,,311,,,,,https://www.redfin.com/VA/Arlington/5118-Columbia-Pike-22204/unit-1/home/11265047,,,N,Y,38.8548868,-77.1139688
PAST SALE,May-17-2024,Single Family Residential,3223 4th St N,Arlington,VA,22201,1527000,4,3.0,ASHTON HEIGHTS,2267,7115,1953,,674,,Sold,,,https://www.redfin.com/VA/Arlington/3223-4th-St-N-22201/home/11256789,BRIGHT MLS,VAAR2042486,N,Y,38.8772754,-77.0967443
PAST SALE,May-6-2024,Condo/Co-op,4535 28th Rd S Unit 8-12,Arlington,VA,22206,330000,1,1.0,HEATHERLEA,673,,1983,,490,365,Sold,,,https://www.redfin.com/VA/Arlington/4535-28th-Rd-S-22206/unit-8-12/home/11267704,BRIGHT MLS,VAAR2042230,N,Y,38.844307,-77.097459
PAST SALE,May-15-2024,Single Family Residential,1128 S Edison St,Arlington,VA,22204,740000,2,2.0,COLUMBIA FOREST,1452,5075,1946,,510,,Sold,,,https://www.redfin.com/VA/Arlington/1128-S-Edison-St-22204/home/11265595,BRIGHT MLS,VAAR2042048,N,Y,38.8509199,-77.1120767
PAST SALE,May-10-2024,Townhouse,606-A N Tazewell St,Arlington,VA,22203,1127333,3,3.0,TOWNES OF BALLSTON,2059,903,1989,,548,272,Sold,,,https://www.redfin.com/VA/Arlington/606A-N-Tazewell-St-22203/home/146255967,BRIGHT MLS,VAAR2042072,N,Y,38.8776818,-77.1126898
PAST SALE,April-2-2024,Condo/Co-op,4500 S Four Mile Run Dr #1205,Arlington,VA,22204,328500,1,1.0,THE BRITTANY,856,,2005,,384,530,Sold,,,https://www.redfin.com/VA/Arlington/4500-S-Four-Mile-Run-Dr-22204/unit-1205/home/11282134,BRIGHT MLS,VAAR2040750,N,Y,38.8540009,-77.1059089
PAST SALE,February-7-2024,Single Family Residential,2009 S Randolph St,Arlington,VA,22204,1624000,4,4.5,DOUGLAS PARK NEW ARL.,4043,5000,2023,,402,,Sold,,,https://www.redfin.com/VA/Arlington/2009-S-Randolph-St-22204/home/11264197,BRIGHT MLS,VAAR2038962,N,Y,38.8497498,-77.0956152
PAST SALE,May-29-2024,Townhouse,1401 S Barton St #228,Arlington,VA,22204,365000,1,1.0,ARLINGTON VILLAGE,800,,1939,,456,450,Sold,,,https://www.redfin.com/VA/Arlington/1401-S-Barton-St-22204/unit-228/home/11272478,BRIGHT MLS,VAAR2042446,N,Y,38.8600541,-77.0827599
PAST SALE,April-10-2024,Single Family Residential,895 N Kentucky St,Arlington,VA,22205,1970000,5,4.5,BROCKWOOD,4331,5600,2024,,455,,Sold,,,https://www.redfin.com/VA/Arlington/895-N-Kentucky-St-22205/home/11241866,BRIGHT MLS,VAAR2040060,N,Y,38.8773963,-77.1325161
PAST SALE,March-11-2024,Townhouse,2412 Walter Reed Dr #1,Arlington,VA,22206,711000,2,2.5,WINDGATE OF ARL,1836,,1979,,387,480,Sold,,,https://www.redfin.com/VA/Arlington/2412-S-Walter-Reed-Dr-22206/unit-1/home/11264872,BRIGHT MLS,VAAR2040456,N,Y,38.8455816,-77.0989161
PAST SALE,May-7-2024,Townhouse,5621 7th Pl S,Arlington,VA,22204,625000,2,2.5,COLUMBIA HEIGHTS,1683,3724,1950,,371,,Sold,,,https://www.redfin.com/VA/Arlington/5621-7th-Pl-S-22204/home/11259710,BRIGHT MLS,VAAR2042256,N,Y,38.857174,-77.1243706
PAST SALE,May-31-2024,Single Family Residential,4716 8th Rd S,Arlington,VA,22204,1435000,5,3.5,BARCROFT,3219,6000,1998,,446,,Sold,,,https://www.redfin.com/VA/Arlington/4716-8th-Rd-S-22204/home/11261767,BRIGHT MLS,VAAR2040330,N,Y,38.8592282,-77.1093389
PAST SALE,May-28-2024,Condo/Co-op,4374 N Pershing Dr #2,Arlington,VA,22203,282500,1,1.0,ARLINGTON OAKS,651,,1940,,434,518,Sold,,,https://www.redfin.com/VA/Arlington/4374-Pershing-DR-22203/unit-2/home/167195874,BRIGHT MLS,VAAR2041820,N,Y,38.87043,-77.10906
PAST SALE,March-13-2024,Condo/Co-op,2503 Arlington Blvd #9,Arlington,VA,22201,330000,1,1.0,CAMBRIDGE COURTS,679,,1943,,486,348,Sold,,,https://www.redfin.com/VA/Arlington/2503-Arlington-Blvd-22201/unit-9/home/11255727,BRIGHT MLS,VAAR2040388,N,Y,38.8746417,-77.0866069
PAST SALE,May-20-2024,Condo/Co-op,802 S Arlington Mill Dr #12301,Arlington,VA,22204,249900,1,1.0,PARK GLEN,539,,1947,,464,393,Sold,,,https://www.redfin.com/VA/Arlington/802-S-Arlington-Mill-Dr-22204/unit-12301/home/11259380,BRIGHT MLS,VAAR2042752,N,Y,38.8601272,-77.1145828
PAST SALE,May-28-2024,Condo/Co-op,4544 28th Rd S Unit 15-5,Arlington,VA,22206,342000,1,1.0,HEATHERLEA,673,,1983,,508,366,Sold,,,https://www.redfin.com/VA/Arlington/4544-28th-Rd-S-22206/unit-15-5/home/11267734,BRIGHT MLS,VAAR2043072,N,Y,38.844634,-77.0965144
PAST SALE,December-27-2023,Condo/Co-op,6001 Arlington Blvd #819,Falls Church,VA,22044,183000,1,1.0,WOODLAKE TOWERS,785,,1970,,233,581,Sold,,,https://www.redfin.com/VA/Falls-Church/6001-Arlington-Blvd-22044/unit-819/home/9569091,BRIGHT MLS,VAFX2157200,N,Y,38.8651765,-77.1375577
PAST SALE,April-3-2024,Single Family Residential,1644 S Stafford St,Arlington,VA,22204,1250000,4,3.0,DOUGLAS PARK NEW ARL.,2600,6019,1962,,481,,Sold,,,https://www.redfin.com/VA/Arlington/1644-S-Stafford-St-22204/home/11264417,BRIGHT MLS,VAAR2041140,N,Y,38.8520793,-77.0985415
PAST SALE,March-29-2024,Condo/Co-op,5112 Columbia Pike #7,Arlington,VA,22204,252000,2,1.0,FREDERICK COURTS,835,,1947,,302,563,Sold,,,https://www.redfin.com/VA/Arlington/5112-Columbia-Pike-22204/unit-7/home/11265037,BRIGHT MLS,VAAR2041024,N,Y,38.8548485,-77.114144
PAST SALE,May-31-2024,Single Family Residential,3904 7th St S,Arlington,VA,22204,976000,4,2.0,ALCOVA HEIGHTS,1795,8256,1939,,544,,Sold,,,https://www.redfin.com/VA/Arlington/3904-7th-St-S-22204/home/11261138,BRIGHT MLS,VAAR2043402,N,Y,38.8637519,-77.099051
PAST SALE,March-13-2024,Townhouse,2107 27th St S,Arlington,VA,22206,629900,3,2.0,LONGBRANCH PARK,1335,3100,1941,,472,,Sold,,,https://www.redfin.com/VA/Arlington/2107-27th-St-S-22206/home/11277858,BRIGHT MLS,VAAR2040464,N,Y,38.8462314,-77.074232
PAST SALE,April-19-2024,Townhouse,4007 Columbia Pike,Arlington,VA,22204,795000,3,2.5,ALCOVA HEIGHTS,1664,1223,2006,,478,60,Sold,,,https://www.redfin.com/VA/Arlington/4007-Columbia-Pike-22204/home/12039898,BRIGHT MLS,VAAR2041738,N,Y,38.8596139,-77.0990709
PAST SALE,April-11-2024,Single Family Residential,4400 4th St S,Arlington,VA,22204,880000,2,2.0,BARCROFT,1092,12566,1951,,806,,Sold,,,https://www.redfin.com/VA/Arlington/4400-4th-St-S-22204/home/11260675,BRIGHT MLS,VAAR2041066,N,Y,38.864076,-77.1077633
PAST SALE,April-25-2024,Condo/Co-op,4600 S Four Mile Run Dr #715,Arlington,VA,22204,360000,3,2.0,THE CARLTON,1280,,1965,,281,1000,Sold,,,https://www.redfin.com/VA/Arlington/4600-S-Four-Mile-Run-Dr-22204/unit-715/home/11266400,BRIGHT MLS,VAAR2041318,N,Y,38.8548626,-77.1069563
PAST SALE,February-26-2024,Townhouse,2136 S Nelson St,Arlington,VA,22204,1060000,5,4.5,DOUGLAS PARK,3200,2268,2020,,331,,Sold,,,https://www.redfin.com/VA/Arlington/2136-S-Nelson-St-22204/home/172271124,BRIGHT MLS,VAAR2039466,N,Y,38.8488907,-77.0902548
PAST SALE,April-15-2024,Townhouse,1300 S Barton St #333,Arlington,VA,22204,372000,1,1.0,ARLINGTON VILLAGE,840,,1939,,443,463,Sold,,,https://www.redfin.com/VA/Arlington/1300-S-Barton-St-22204/unit-333/home/11272907,BRIGHT MLS,VAAR2041336,N,Y,38.8604813,-77.0832924
PAST SALE,May-9-2024,Condo/Co-op,202 N George Mason Dr #2,Arlington,VA,22203,335000,2,1.0,ARLINGTON OAKS,831,,1940,,403,542,Sold,,,https://www.redfin.com/VA/Arlington/202-N-George-Mason-Dr-22203/unit-2/home/169697312,BRIGHT MLS,VAAR2042158,N,Y,38.8702698,-77.1075907
PAST SALE,May-15-2024,Condo/Co-op,4525 28th Rd S Unit C,Arlington,VA,22206,500000,2,1.0,HEATHERLEA,935,,1983,,535,365,Sold,,,https://www.redfin.com/VA/Arlington/4525-28th-Rd-S-22206/unit-C/home/190507849,BRIGHT MLS,VAAR2042228,N,Y,38.8448481,-77.0970279
PAST SALE,March-19-2024,Single Family Residential,205 N Fillmore St,Arlington,VA,22201,1700000,4,3.0,CLARENDON,2853,5869,1930,,596,,Sold,,,https://www.redfin.com/VA/Arlington/205-N-Fillmore-St-22201/home/11255531,BRIGHT MLS,VAAR2040428,N,Y,38.8769404,-77.0906675
PAST SALE,February-15-2024,Townhouse,3441 Kemper Rd,Arlington,VA,22206,950000,3,3.5,SHIRLINGTON CREST,2496,1406,2011,,381,170,Sold,,,https://www.redfin.com/VA/Arlington/3441-Kemper-Rd-22206/home/28681755,BRIGHT MLS,VAAR2038566,N,Y,38.84586,-77.086847
PAST SALE,April-5-2024,Condo/Co-op,801 S Greenbrier St,Arlington,VA,22204,483120,2,2.0,THE SIERRA,1300,,2005,,372,756,Sold,,,https://www.redfin.com/VA/Arlington/801-S-Greenbrier-St-22204/home/11281646,BRIGHT MLS,VAAR2040812,N,Y,38.8578548,-77.1192458
PAST SALE,April-26-2024,Single Family Residential,5016 6th St N,Arlington,VA,22203,891000,3,2.0,BRANDON VILLAGE,1696,8330,1950,,525,,Sold,,,https://www.redfin.com/VA/Arlington/5016-6th-St-N-22203/home/11243841,BRIGHT MLS,VAAR2041418,N,Y,38.8750199,-77.1190925
PAST SALE,April-19-2024,Single Family Residential,700 S Florida St,Arlington,VA,22204,915000,5,2.5,COLUMBIA TERRACE,2352,7043,1961,,389,,Sold,,,https://www.redfin.com/VA/Arlington/700-S-Florida-St-22204/home/11260024,BRIGHT MLS,VAAR2040476,N,Y,38.8590606,-77.1192352
PAST SALE,March-1-2024,Single Family Residential,5113 12th St S,Arlington,VA,22204,809000,4,3.0,COLUMBIA FOREST,1909,5001,1942,,424,,Sold,,,https://www.redfin.com/VA/Arlington/5113-12th-St-S-22204/home/11265579,BRIGHT MLS,VAAR2039702,N,Y,38.8507439,-77.1127303
PAST SALE,April-18-2024,Single Family Residential,3428 7th St S,Arlington,VA,22204,1005000,4,3.0,ALCOVA HEIGHTS,1856,6485,1945,,541,,Sold,,,https://www.redfin.com/VA/Arlington/3428-7th-St-S-22204/home/11261189,BRIGHT MLS,VAAR2040870,N,Y,38.8651412,-77.0942405
PAST SALE,April-5-2024,Single Family Residential,2911 1st St N,Arlington,VA,22201,2200000,7,6.0,ASHTON HEIGHTS,5270,8276,2005,,417,,Sold,,,https://www.redfin.com/VA/Arlington/2911-1st-St-N-22201/home/11279989,BRIGHT MLS,VAAR2039590,N,Y,38.8752393,-77.0908235
PAST SALE,February-29-2024,Single Family Residential,317 N Manchester St,Arlington,VA,22203,924000,4,3.0,SPY HILL BLVD MANOR,2291,6534,1956,,403,,Sold,,,https://www.redfin.com/VA/Arlington/317-N-Manchester-St-22203/home/11241262,BRIGHT MLS,VAAR2038812,N,Y,38.869103,-77.1326216
PAST SALE,April-22-2024,Condo/Co-op,2705 Arlington Blvd N #201,Arlington,VA,22201,328000,1,1.0,CAMBRIDGE COURTS,642,,1944,,511,348,Sold,,,https://www.redfin.com/VA/Arlington/2705-Arlington-Blvd-22201/unit-201/home/167064122,BRIGHT MLS,VAAR2041576,N,Y,38.8745743,-77.0885524
PAST SALE,April-18-2024,Single Family Residential,5403 4th St S,Arlington,VA,22204,830000,4,2.0,GLEN CARLIN,1992,6000,1961,,417,,Sold,,,https://www.redfin.com/VA/Arlington/5403-4th-St-S-22204/home/11258725,BRIGHT MLS,VAAR2041620,N,Y,38.8634189,-77.1208285
PAST SALE,January-11-2024,Townhouse,1510 S Edgewood St #544,Arlington,VA,22204,450000,2,1.0,ARLINGTON VILLAGE,994,,1939,,453,527,Sold,,,https://www.redfin.com/VA/Arlington/1510-S-Edgewood-St-22204/unit-544/home/11273421,BRIGHT MLS,VAAR2038290,N,Y,38.85773,-77.085105
PAST SALE,May-21-2024,Townhouse,1030 S Barton St #275,Arlington,VA,22204,460000,2,1.0,ARLINGTON VILLAGE,994,,1939,,463,548,Sold,,,https://www.redfin.com/VA/Arlington/1030-S-Barton-St-22204/unit-275/home/11272849,BRIGHT MLS,VAAR2042564,N,Y,38.8625435,-77.0839432
PAST SALE,February-21-2024,Single Family Residential,867 N Jacksonville St,Arlington,VA,22205,1275000,4,3.0,BROCKWOOD,2548,6028,1956,,500,,Sold,,,https://www.redfin.com/VA/Arlington/867-N-Jacksonville-St-22205/home/11241769,BRIGHT MLS,VAAR2039084,N,Y,38.8772884,-77.1299777
PAST SALE,April-18-2024,Townhouse,2600 13th Rd S #398,Arlington,VA,22204,344000,1,1.0,ARLINGTON VILLAGE,800,,1939,,430,442,Sold,,,https://www.redfin.com/VA/Arlington/2600-13th-Rd-S-22204/unit-398/home/11273188,BRIGHT MLS,VAAR2041376,N,Y,38.859776,-77.083751
PAST SALE,January-5-2024,Townhouse,816 S Ode St S,Arlington,VA,22204,650000,2,2.0,FOXCROFT,992,4400,1938,,655,,Sold,,,https://www.redfin.com/VA/Arlington/816-S-Ode-St-22204/home/11263580,BRIGHT MLS,VAAR2038584,N,Y,38.8678865,-77.0718825
PAST SALE,February-20-2024,Single Family Residential,33 N Garfield St,Arlington,VA,22201,1220000,3,2.5,ASHTON HEIGHTS,1720,6232,1952,,709,,Sold,,,https://www.redfin.com/VA/Arlington/33-N-Garfield-St-22201/home/11255985,BRIGHT MLS,VAAR2039012,N,Y,38.8743373,-77.0912844
PAST SALE,May-2-2024,Townhouse,1600 S Barton St #746,Arlington,VA,22204,350000,2,1.0,ARLINGTON VILLAGE,840,,1939,,417,463,Sold,,,https://www.redfin.com/VA/Arlington/1600-S-Barton-St-22204/unit-746/home/11273085,BRIGHT MLS,VAAR2041708,N,Y,38.8574005,-77.0821059
PAST SALE,December-12-2023,Single Family Residential,610 S Irving St,Arlington,VA,22204,850000,4,1.0,ARLINGTON HEIGHTS,1714,10432,1940,,496,,Sold,,,https://www.redfin.com/VA/Arlington/610-S-Irving-St-22204/home/11263020,BRIGHT MLS,VAAR2037890,N,Y,38.8669328,-77.0914041
PAST SALE,April-22-2024,Single Family Residential,878 N Kensington St N,Arlington,VA,22205,1288500,2,3.5,BROCKWOOD,2125,6645,1940,,606,,Sold,,,https://www.redfin.com/VA/Arlington/878-N-Kensington-St-22205/home/11241874,BRIGHT MLS,VAAR2040334,N,Y,38.8771941,-77.1315361
PAST SALE,May-1-2024,Townhouse,2328 S Quincy St #2,Arlington,VA,22204,609000,3,2.5,CONCORD MEWS,1418,,1976,,429,723,Sold,,,https://www.redfin.com/VA/Arlington/2328-S-Quincy-St-22204/unit-2/home/11271824,BRIGHT MLS,VAAR2041436,N,Y,38.8467564,-77.0927051
PAST SALE,December-20-2023,Condo/Co-op,801 S Greenbrier St #218,Arlington,VA,22204,349000,2,1.5,THE SIERRA,1000,,2005,,349,556,Sold,,,https://www.redfin.com/VA/Arlington/801-S-Greenbrier-St-22204/unit-218/home/11281593,BRIGHT MLS,VAAR2037642,N,Y,38.8578548,-77.1192458
PAST SALE,February-28-2024,Townhouse,2601 16th St S #617,Arlington,VA,22204,350000,1,1.0,ARLINGTON VILLAGE,800,,1939,,438,442,Sold,,,https://www.redfin.com/VA/Arlington/2601-16th-St-S-22204/unit-617/home/11273359,BRIGHT MLS,VAAR2039874,N,Y,38.8578956,-77.0831941
PAST SALE,March-29-2024,Townhouse,3031 22nd St S,Arlington,VA,22204,723500,3,2.5,MILESTONE,1332,608,1993,,543,148,Sold,,,https://www.redfin.com/VA/Arlington/3031-22nd-St-S-22204/home/11271980,BRIGHT MLS,VAAR2040524,N,Y,38.8502698,-77.0844371
PAST SALE,January-24-2024,Townhouse,5209 10th Pl S,Arlington,VA,22204,280000,2,1.0,VIRGINIA HEIGHTS ETC,816,3000,1950,,343,,Sold,,,https://www.redfin.com/VA/Arlington/5209-10th-Pl-S-22204/home/11265124,BRIGHT MLS,VAAR2038506,N,Y,38.8523876,-77.1155942
PAST SALE,March-13-2024,Single Family Residential,5916 5th Rd N,Arlington,VA,22203,1000000,4,3.0,SPY HILL BLVD MANOR,2394,6629,1958,,418,,Sold,,,https://www.redfin.com/VA/Arlington/5916-5th-Rd-N-22203/home/11241300,BRIGHT MLS,VAAR2040092,N,Y,38.8715258,-77.135126
PAST SALE,January-31-2024,Condo/Co-op,4501 Arlington Blvd #730,Arlington,VA,22203,210000,1,1.0,THE CHATHAM,533,,1965,,394,443,Sold,,,https://www.redfin.com/VA/Arlington/4501-Arlington-Blvd-22203/unit-730/home/11257796,BRIGHT MLS,VAAR2038824,N,Y,38.8692333,-77.1087161
PAST SALE,May-15-2024,Condo/Co-op,4501 Arlington Blvd #818,Arlington,VA,22203,270000,1,1.0,THE CHATHAM,819,,1965,,330,737,Sold,,,https://www.redfin.com/VA/Arlington/4501-Arlington-Blvd-22203/unit-818/home/11257815,BRIGHT MLS,VAAR2042548,N,Y,38.8692333,-77.1087161
PAST SALE,May-21-2024,Townhouse,3230 Spring Ln,Falls Church,VA,22041,698500,4,3.5,CARLYN SQUARE,2316,1929,1971,,302,93,Sold,,,https://www.redfin.com/VA/Falls-Church/3230-Spring-Ln-22041/home/9648857,BRIGHT MLS,VAFX2170370,N,Y,38.8559155,-77.1258348
PAST SALE,June-3-2024,Single Family Residential,120 N Granada St,Arlington,VA,22203,1385000,4,4.0,ARLINGTON FOREST,2444,6050,1941,,567,,Sold,,,https://www.redfin.com/VA/Arlington/120-N-Granada-St-22203/home/11243529,BRIGHT MLS,VAAR2043014,N,Y,38.8690059,-77.1239054
PAST SALE,March-15-2024,Single Family Residential,719 N Albemarle St,Arlington,VA,22203,1250000,4,3.0,BRANDON VILLAGE,2107,9637,1940,,593,,Sold,,,https://www.redfin.com/VA/Arlington/719-N-Albemarle-St-22203/home/11242351,BRIGHT MLS,VAAR2040286,N,Y,38.8774982,-77.1177145
PAST SALE,March-19-2024,Single Family Residential,420 S Highland St S,Arlington,VA,22204,939900,3,2.5,ARLINGTON HEIGHTS,1595,5500,1985,,589,,Sold,,,https://www.redfin.com/VA/Arlington/420-S-Highland-St-22204/home/11262385,BRIGHT MLS,VAAR2040164,N,Y,38.8684428,-77.0908291
PAST SALE,January-3-2024,Condo/Co-op,4141 N Henderson Rd #623,Arlington,VA,22203,610000,3,2.0,HYDE PARK,1419,,1973,,430,1106,Sold,,,https://www.redfin.com/VA/Arlington/4141-N-Henderson-Rd-22203/unit-623/home/11257315,BRIGHT MLS,VAAR2038286,N,Y,38.8758024,-77.1094008
PAST SALE,April-19-2024,Single Family Residential,4601 2nd St S,Arlington,VA,22204,1260000,4,3.5,BARCROFT,2701,5981,1952,,466,,Sold,,,https://www.redfin.com/VA/Arlington/4601-2nd-St-S-22204/home/11260586,BRIGHT MLS,VAAR2041464,N,Y,38.8649409,-77.1095223
PAST SALE,January-31-2024,Single Family Residential,114 N Cleveland St N,Arlington,VA,22201,1056000,3,2.0,CLARENDON,1612,3800,1938,,655,,Sold,,,https://www.redfin.com/VA/Arlington/114-N-Cleveland-St-22201/home/11255560,BRIGHT MLS,VAAR2038878,N,Y,38.8765887,-77.0886236
PAST SALE,April-5-2024,Single Family Residential,3905 13th St S,Arlington,VA,22204,815000,3,3.0,DOUGLAS PARK NEW ARL.,1660,6027,1952,,491,,Sold,,,https://www.redfin.com/VA/Arlington/3905-13th-St-S-22204/home/11264236,BRIGHT MLS,VAAR2040884,N,Y,38.8575756,-77.096957
PAST SALE,May-23-2024,Single Family Residential,515 N Norwood St,Arlington,VA,22203,1510000,4,3.5,ASHTON HEIGHTS,2447,6900,1938,,617,,Sold,,,https://www.redfin.com/VA/Arlington/515-N-Norwood-St-22203/home/11256414,BRIGHT MLS,VAAR2041580,N,Y,38.8779331,-77.1026925
PAST SALE,January-30-2024,Condo/Co-op,4500 S Four Mile Run Dr #134,Arlington,VA,22204,428000,2,2.0,BRITTANY,1395,,2005,,307,817,Sold,,,https://www.redfin.com/VA/Arlington/4500-S-Four-Mile-Run-Dr-22204/unit-134/home/11281791,BRIGHT MLS,VAAR2039068,N,Y,38.8540009,-77.1059089
PAST SALE,March-15-2024,Single Family Residential,862 N Harrison St N,Arlington,VA,22205,1862500,5,3.5,SUMMIT & VEITCH,4507,10751,1940,,413,,Sold,,,https://www.redfin.com/VA/Arlington/862-N-Harrison-St-22205/home/11241933,BRIGHT MLS,VAAR2039828,N,Y,38.8776361,-77.1273971
PAST SALE,April-12-2024,Single Family Residential,5130 9th St N,Arlington,VA,22205,1500000,6,4.5,SUMMIT & VEITCH,3936,7260,2007,,381,,Sold,,,https://www.redfin.com/VA/Arlington/5130-9th-St-N-22205/home/11242037,BRIGHT MLS,VAAR2040448,N,Y,38.8794226,-77.1243585
PAST SALE,March-13-2024,Single Family Residential,5614 1st St S,Arlington,VA,22204,1275000,5,3.5,GLEN CARLIN,3300,6000,1988,,386,,Sold,,,https://www.redfin.com/VA/Arlington/5614-1st-St-S-22204/home/11258616,BRIGHT MLS,VAAR2040008,N,Y,38.8651848,-77.1249547
PAST SALE,May-29-2024,Townhouse,1400 S Edgewood St #514,Arlington,VA,22204,366000,1,1.0,ARLINGTON VILLAGE,800,,1939,,458,442,Sold,,,https://www.redfin.com/VA/Arlington/1400-S-Edgewood-St-22204/unit-514/home/11273391,BRIGHT MLS,VAAR2043358,N,Y,38.8590682,-77.0855087
PAST SALE,May-14-2024,Single Family Residential,2023 S Lowell St,Arlington,VA,22204,675000,3,3.0,NAUCK GREEN VALLEY,1805,4328,1995,,374,,Sold,,,https://www.redfin.com/VA/Arlington/2023-S-Lowell-St-22204/home/11271462,BRIGHT MLS,VAAR2041928,N,Y,38.8505297,-77.0878561
PAST SALE,February-21-2024,Condo/Co-op,4501 Arlington Blvd #624,Arlington,VA,22203,260000,1,1.0,THE CHATHAM,940,,1965,,277,722,Sold,,,https://www.redfin.com/VA/Arlington/4501-Arlington-Blvd-22203/unit-624/home/11257759,BRIGHT MLS,VAAR2039262,N,Y,38.8692333,-77.1087161
PAST SALE,May-31-2024,Condo/Co-op,2614 S Arlington Mill Dr Unit C,Arlington,VA,22206,469000,2,1.0,WINDGATE OF ARL,913,,1983,,514,351,Sold,,,https://www.redfin.com/VA/Arlington/2614-S-Arlington-Mill-Dr-22206/unit-C/home/190658412,BRIGHT MLS,VAAR2041924,N,Y,38.8437569,-77.093682
PAST SALE,March-29-2024,Single Family Residential,1722 S Nelson St,Arlington,VA,22204,1684000,4,4.5,DOUGLAS PARK NEW ARL.,3722,8400,2024,,452,,Sold,,,https://www.redfin.com/VA/Arlington/1722-S-Nelson-St-22204/home/11263949,BRIGHT MLS,VAAR2039582,N,Y,38.8534756,-77.0922735
PAST SALE,February-23-2024,Condo/Co-op,5103 10th St S #3,Arlington,VA,22204,228000,2,1.0,FREDERICK COURTS,835,,1947,,273,538,Sold,,,https://www.redfin.com/VA/Arlington/5103-10th-St-S-22204/unit-3/home/11265076,BRIGHT MLS,VAAR2039444,N,Y,38.8541181,-77.1141462
PAST SALE,February-27-2024,Single Family Residential,5616 8th Rd N,Arlington,VA,22205,1725000,5,4.5,BONAIR,3794,6000,2016,,455,,Sold,,,https://www.redfin.com/VA/Arlington/5616-8th-Rd-N-22205/home/114033532,BRIGHT MLS,VAAR2039706,N,Y,38.8755641,-77.1288014
PAST SALE,April-26-2024,Condo/Co-op,5111 8th Rd S #202,Arlington,VA,22204,215000,1,1.0,COLUMBIA KNOLLS,833,,1961,,258,681,Sold,,,https://www.redfin.com/VA/Arlington/5111-8th-Rd-S-22204/unit-202/home/11259071,BRIGHT MLS,VAAR2041370,N,Y,38.8577074,-77.1166505
PAST SALE,December-29-2023,Condo/Co-op,4241 Columbia Pike #207,Arlington,VA,22204,240000,2,1.5,TANGLEWOOD,1072,,1966,,224,831,Sold,,,https://www.redfin.com/VA/Arlington/4241-Columbia-Pike-22204/unit-207/home/11261433,BRIGHT MLS,VAAR2038168,N,Y,38.8591305,-77.1036029
PAST SALE,March-29-2024,Condo/Co-op,4500 S Four Mile Run Dr #415,Arlington,VA,22204,503000,2,2.0,BRITTANY,1152,,2005,,437,688,Sold,,,https://www.redfin.com/VA/Arlington/4500-S-Four-Mile-Run-Dr-22204/unit-415/home/11281873,BRIGHT MLS,VAAR2040278,N,Y,38.8540009,-77.1059089
PAST SALE,February-22-2024,Townhouse,2551 S Kenmore Ct S,Arlington,VA,22206,766150,2,2.5,SHIRLINGTON CREST,1613,871,2009,,475,160,Sold,,,https://www.redfin.com/VA/Arlington/2551-S-Kenmore-Ct-22206/home/28680619,BRIGHT MLS,VAAR2039170,N,Y,38.8455875,-77.0848558
PAST SALE,February-9-2024,Townhouse,3005 16th Rd S,Arlington,VA,22204,603500,2,2.0,FOXHALL,1248,2500,1947,,484,,Sold,,,https://www.redfin.com/VA/Arlington/3005-16th-Rd-S-22204/home/11273725,BRIGHT MLS,VAAR2038934,N,Y,38.8564074,-77.0868107
PAST SALE,April-29-2024,Single Family Residential,239 N Barton St,Arlington,VA,22201,1304239,3,2.5,CLARENDON,2531,6700,1971,,515,,Sold,,,https://www.redfin.com/VA/Arlington/239-N-Barton-St-22201/home/11255371,BRIGHT MLS,VAAR2041878,N,Y,38.8787557,-77.0858966
PAST SALE,April-9-2024,Single Family Residential,2802 1st Rd N,Arlington,VA,22201,1051000,3,2.0,CLARENDON,1686,6010,1937,,623,,Sold,,,https://www.redfin.com/VA/Arlington/2802-1st-Rd-N-22201/home/11255569,BRIGHT MLS,VAAR2040942,N,Y,38.875674,-77.0889003
PAST SALE,March-15-2024,Single Family Residential,3700 7th St S,Arlington,VA,22204,1122000,3,2.5,ALCOVA HEIGHTS,1848,8147,1939,,607,,Sold,,,https://www.redfin.com/VA/Arlington/3700-7th-St-S-22204/home/11261176,BRIGHT MLS,VAAR2040328,N,Y,38.8644564,-77.0966796
PAST SALE,May-28-2024,Single Family Residential,212 S Irving St,Arlington,VA,22204,1385000,4,3.5,ARLINGTON HEIGHTS,2433,7210,1939,,569,,Sold,,,https://www.redfin.com/VA/Arlington/212-S-Irving-St-22204/home/11262352,BRIGHT MLS,VAAR2043604,N,Y,38.8691897,-77.0922546
PAST SALE,February-13-2024,Townhouse,1610 S Taylor St S,Arlington,VA,22204,837500,3,2.5,VIRGINIA GARDENS TOWNH,2491,1881,1999,,336,25,Sold,,,https://www.redfin.com/VA/Arlington/1610-S-Taylor-St-22204/home/11264455,BRIGHT MLS,VAAR2039172,N,Y,38.8527335,-77.1009954
PAST SALE,March-19-2024,Single Family Residential,5008 N Carlin Springs Rd,Arlington,VA,22203,1100000,4,3.5,ARLINGTON FOREST,2444,7513,1946,,450,,Sold,,,https://www.redfin.com/VA/Arlington/5008-N-Carlin-Springs-Rd-22203/home/11243169,BRIGHT MLS,VAAR2039954,N,Y,38.8737481,-77.1170663
PAST SALE,April-19-2024,Townhouse,2334 S Rolfe St,Arlington,VA,22202,985000,4,3.5,FOREST HILLS COMMON,3024,2887,1980,,326,132,Sold,,,https://www.redfin.com/VA/Arlington/2334-S-Rolfe-St-22202/home/11277748,BRIGHT MLS,VAAR2041500,N,Y,38.8519043,-77.0740328
PAST SALE,March-8-2024,Townhouse,847 S Ivy St S,Arlington,VA,22204,660000,2,2.0,WESTMONT,1415,3000,1939,,466,,Sold,,,https://www.redfin.com/VA/Arlington/847-S-Ivy-St-22204/home/11263107,BRIGHT MLS,VAAR2040138,N,Y,38.8634624,-77.0910282
PAST SALE,May-10-2024,Single Family Residential,2902 16th St S,Arlington,VA,22204,926111,4,2.0,ARL VIILAGE/ARL HILLS,1795,5093,1935,,516,,Sold,,,https://www.redfin.com/VA/Arlington/2902-16th-St-S-22204/home/11272336,BRIGHT MLS,VAAR2042460,N,Y,38.8570107,-77.0858328
PAST SALE,April-23-2024,Condo/Co-op,4308 2nd Rd N #43082,Arlington,VA,22203,330000,2,1.0,ARLINGTON OAKS,894,,1940,,369,565,Sold,,,https://www.redfin.com/VA/Arlington/4308-2nd-Rd-N-22203/unit-43082/home/11258062,BRIGHT MLS,VAAR2041174,N,Y,38.8716497,-77.1061091
PAST SALE,December-8-2023,Single Family Residential,810 N Harrison St,Arlington,VA,22205,1994700,5,4.5,BONAIR,5026,7107,2023,,397,,Sold,,,https://www.redfin.com/VA/Arlington/810-N-Harrison-St-22205/home/11242612,BRIGHT MLS,VAAR2037428,N,Y,38.8760035,-77.1260224
PAST SALE,April-30-2024,Single Family Residential,838 S Monroe St,Arlington,VA,22204,709999,4,2.5,ALCOVA HEIGHTS,1425,5000,1939,,498,,Sold,,,https://www.redfin.com/VA/Arlington/838-S-Monroe-St-22204/home/11261265,BRIGHT MLS,VAAR2041640,N,Y,38.8625636,-77.0950265
PAST SALE,May-6-2024,Condo/Co-op,2904 13th Rd S #301,Arlington,VA,22204,345000,2,1.0,COMMONS OF ARL,875,,1948,,394,485,Sold,,,https://www.redfin.com/VA/Arlington/2904-13th-Rd-S-22204/unit-301/home/171198144,BRIGHT MLS,VAAR2042088,N,Y,38.858789,-77.086248
PAST SALE,April-11-2024,Townhouse,3000 Federal Hill Dr,Falls Church,VA,22044,753236,3,3.5,FEDERAL HILL,2526,1340,1980,,298,241,Sold,,,https://www.redfin.com/VA/Falls-Church/3000-Federal-Hill-Dr-22044/home/9568531,BRIGHT MLS,VAFX2169122,N,Y,38.8673524,-77.1399665
PAST SALE,May-24-2024,Single Family Residential,118 N Nottingham St,Arlington,VA,22203,916000,3,2.5,SPY HILL BLVD MANOR,2644,8814,1965,,346,,Sold,,,https://www.redfin.com/VA/Arlington/118-N-Nottingham-St-22203/home/11241618,BRIGHT MLS,VAAR2043116,N,Y,38.867514,-77.1381126
PAST SALE,February-27-2024,Condo/Co-op,804 S Arlington Mill Dr #11301,Arlington,VA,22204,246000,1,1.0,PARK GLEN,539,,1947,,456,393,Sold,,,https://www.redfin.com/VA/Arlington/804-S-Arlington-Mill-Dr-22204/unit-11301/home/11259368,BRIGHT MLS,VAAR2039584,N,Y,38.8601739,-77.1141056
PAST SALE,March-18-2024,Single Family Residential,112 N Abingdon St,Arlington,VA,22203,1542000,5,4.0,ARLINGTON FOREST,2695,6167,1941,,572,,Sold,,,https://www.redfin.com/VA/Arlington/112-N-Abingdon-St-22203/home/11243768,BRIGHT MLS,VAAR2039922,N,Y,38.8686893,-77.1150247
PAST SALE,March-29-2024,Townhouse,209 S Veitch St,Arlington,VA,22204,636100,3,2.0,FORT CRAIG,1054,2750,1940,,604,,Sold,,,https://www.redfin.com/VA/Arlington/209-S-Veitch-St-22204/home/11262747,BRIGHT MLS,VAAR2040748,N,Y,38.8712005,-77.0823707
PAST SALE,May-10-2024,Single Family Residential,206 N Fillmore St,Arlington,VA,22201,1600000,5,3.0,ASHTON HEIGHTS,2482,5790,1920,,645,,Sold,,,https://www.redfin.com/VA/Arlington/206-N-Fillmore-St-22201/home/11255524,BRIGHT MLS,VAAR2042180,N,Y,38.8768355,-77.0910933
PAST SALE,May-21-2024,Single Family Residential,416 N Kensington St,Arlington,VA,22205,1261500,4,4.0,BONAIR,2546,6030,1960,,495,,Sold,,,https://www.redfin.com/VA/Arlington/416-N-Kensington-St-22205/home/11242840,BRIGHT MLS,VAAR2043118,N,Y,38.8713741,-77.1288841
PAST SALE,June-4-2024,Townhouse,2634 S Troy St,Arlington,VA,22206,600000,2,1.0,LONGBRANCH PARK,1365,2836,1941,,440,,Sold,,,https://www.redfin.com/VA/Arlington/2634-S-Troy-St-22206/home/11277849,BRIGHT MLS,VAAR2043304,N,Y,38.8469981,-77.0736362
PAST SALE,April-29-2024,Single Family Residential,870 N Arlington Mill Dr,Arlington,VA,22205,912000,3,2.0,DOMINION HILLS,2200,8534,1953,,415,,Sold,,,https://www.redfin.com/VA/Arlington/870-N-Arlington-Mill-Dr-22205/home/11241157,BRIGHT MLS,VAAR2040764,N,Y,38.8756666,-77.1353265
PAST SALE,February-5-2024,Condo/Co-op,4501 Arlington Blvd #229,Arlington,VA,22203,275500,1,1.0,THE CHATHAM,819,,1965,,336,657,Sold,,,https://www.redfin.com/VA/Arlington/4501-Arlington-Blvd-22203/unit-229/home/11257638,BRIGHT MLS,VAAR2038806,N,Y,38.8692333,-77.1087161
PAST SALE,March-15-2024,Townhouse,1400 S Barton St S #426,Arlington,VA,22204,460000,2,1.0,ARLINGTON VILLAGE,1086,,1939,,424,599,Sold,,,https://www.redfin.com/VA/Arlington/1400-S-Barton-St-22204/unit-426/home/11273216,BRIGHT MLS,VAAR2039464,N,Y,38.8594834,-77.0831231
PAST SALE,March-19-2024,Townhouse,932 S Rolfe St,Arlington,VA,22204,725000,2,2.5,COLUMBIA SQUARE,1824,898,1987,,397,90,Sold,,,https://www.redfin.com/VA/Arlington/932-S-Rolfe-St-22204/home/11263394,BRIGHT MLS,VAAR2039482,N,Y,38.8657253,-77.0764241
PAST SALE,February-15-2024,Condo/Co-op,1107 S Walter Reed Dr #402,Arlington,VA,22204,650000,2,2.0,COLUMBIA PLACE,1290,,2015,,504,600,Sold,,,https://www.redfin.com/VA/Arlington/1107-S-Walter-Reed-Dr-22204/unit-402/home/101620379,BRIGHT MLS,VAAR2038818,N,Y,38.8613461,-77.0867096
PAST SALE,May-3-2024,Townhouse,2136 S Pollard St,Arlington,VA,22204,543000,3,2.0,FORT BARNARD HEIGHTS,1113,2500,1945,,488,,Sold,,,https://www.redfin.com/VA/Arlington/2136-S-Pollard-St-22204/home/11271763,BRIGHT MLS,VAAR2041956,N,Y,38.8483055,-77.0926557
PAST SALE,March-12-2024,Single Family Residential,1315 S Norwood St,Arlington,VA,22204,905000,4,2.0,DOUGLAS PARK NEW ARL.,2163,9126,1960,,418,,Sold,,,https://www.redfin.com/VA/Arlington/1315-S-Norwood-St-22204/home/11263755,BRIGHT MLS,VAAR2040398,N,Y,38.8574327,-77.0940926
PAST SALE,April-16-2024,Townhouse,930 S Rolfe St,Arlington,VA,22204,741500,2,2.5,COLUMBIA SQUARE,1584,898,1987,,468,90,Sold,,,https://www.redfin.com/VA/Arlington/930-S-Rolfe-St-22204/home/11263395,BRIGHT MLS,VAAR2041074,N,Y,38.8657291,-77.0763679
PAST SALE,February-12-2024,Single Family Residential,5707 9th St N,Arlington,VA,22205,1450000,4,2.0,BROCKWOOD,2405,13501,1940,,603,,Sold,,,https://www.redfin.com/VA/Arlington/5707-9th-St-N-22205/home/11241822,BRIGHT MLS,VAAR2039332,N,Y,38.8779323,-77.1329694
PAST SALE,May-24-2024,Single Family Residential,3201 12th St S,Arlington,VA,22204,700000,4,2.0,ARL VIILAGE/ARL HILLS,1116,6404,1941,,627,,Sold,,,https://www.redfin.com/VA/Arlington/3201-12th-St-S-22204/home/11272975,BRIGHT MLS,VAAR2042958,N,Y,38.8601199,-77.090284
PAST SALE,January-31-2024,Single Family Residential,6009 4th St N,Arlington,VA,22203,1622551,5,3.5,SPY HILL BLVD MANOR,3824,6110,1993,,424,,Sold,,,https://www.redfin.com/VA/Arlington/6009-4th-St-N-22203/home/11241563,BRIGHT MLS,VAAR2037446,N,Y,38.8700083,-77.1377228
PAST SALE,February-16-2024,Single Family Residential,4508 8th St S,Arlington,VA,22204,855000,2,2.0,BARCROFT,1554,7740,1898,,550,,Sold,,,https://www.redfin.com/VA/Arlington/4508-8th-St-S-22204/home/11261471,BRIGHT MLS,VAAR2038960,N,Y,38.8605207,-77.107277
PAST SALE,March-29-2024,Condo/Co-op,3701 5th St S #408,Arlington,VA,22204,150000,0,1.0,STRATTON HOUSE,490,,1958,,306,518,Sold,,,https://www.redfin.com/VA/Arlington/3701-5th-St-S-22204/unit-408/home/11260872,BRIGHT MLS,VAAR2040886,N,Y,38.8668515,-77.0978596
PAST SALE,February-20-2024,Condo/Co-op,4600 S Four Mile Run Dr #131,Arlington,VA,22204,170000,0,1.0,THE CARLTON,546,,1965,,311,505,Sold,,,https://www.redfin.com/VA/Arlington/4600-S-Four-Mile-Run-Dr-22204/unit-131/home/11266164,BRIGHT MLS,VAAR2039608,N,Y,38.8548626,-77.1069563
PAST SALE,April-15-2024,Single Family Residential,309 N Greenbrier St N,Arlington,VA,22203,1194000,3,3.0,ARLINGTON FOREST,2372,6575,1941,,503,,Sold,,,https://www.redfin.com/VA/Arlington/309-N-Greenbrier-St-22203/home/11243338,BRIGHT MLS,VAAR2040718,N,Y,38.8711039,-77.1212347
PAST SALE,May-23-2024,Single Family Residential,5509 5th St S,Arlington,VA,22204,900000,3,2.0,GLEN CARLIN,1242,6000,1951,,725,,Sold,,,https://www.redfin.com/VA/Arlington/5509-5th-St-S-22204/home/11258882,BRIGHT MLS,VAAR2042400,N,Y,38.8625647,-77.1227343
PAST SALE,March-20-2024,Townhouse,3424 11th St S,Arlington,VA,22204,975000,4,4.5,PIKE 3400,2511,1393,2015,,388,155,Sold,,,https://www.redfin.com/VA/Arlington/3424-11th-St-S-22204/home/101388527,BRIGHT MLS,VAAR2040192,N,Y,38.8600678,-77.0924633
PAST SALE,April-11-2024,Single Family Residential,925 N Jacksonville St N,Arlington,VA,22205,1325000,4,3.0,BROCKWOOD,2328,6972,1986,,569,,Sold,,,https://www.redfin.com/VA/Arlington/925-N-Jacksonville-St-22205/home/11241784,BRIGHT MLS,VAAR2040266,N,Y,38.8789245,-77.1312573
PAST SALE,May-17-2024,Townhouse,1401 S Barton St #216,Arlington,VA,22204,325000,1,1.0,ARLINGTON VILLAGE,840,,1939,,387,463,Sold,,,https://www.redfin.com/VA/Arlington/1401-S-Barton-St-22204/unit-216/home/11272466,BRIGHT MLS,VAAR2042186,N,Y,38.8600541,-77.0827599
PAST SALE,May-31-2024,Single Family Residential,4700 2nd St N,Arlington,VA,22203,993000,3,2.0,ARLINGTON FOREST,1716,6250,1941,,579,,Sold,,,https://www.redfin.com/VA/Arlington/4700-2nd-St-N-22203/home/11243761,BRIGHT MLS,VAAR2042114,N,Y,38.8697334,-77.1144704
PAST SALE,February-14-2024,Single Family Residential,4600 7th St N,Arlington,VA,22203,1225000,5,2.5,BRANDON VILLAGE,2297,8207,1966,,533,,Sold,,,https://www.redfin.com/VA/Arlington/4600-7th-St-N-22203/home/11242270,BRIGHT MLS,VAAR2038930,N,Y,38.87749,-77.1156617
PAST SALE,April-16-2024,Single Family Residential,4755 1st St N,Arlington,VA,22203,955000,3,2.0,ARLINGTON FOREST,1756,6875,1941,,544,,Sold,,,https://www.redfin.com/VA/Arlington/4755-1st-St-N-22203/home/11243771,BRIGHT MLS,VAAR2041236,N,Y,38.8681371,-77.1152616
PAST SALE,May-13-2024,Single Family Residential,375 S George Mason Dr,Arlington,VA,22204,842500,4,2.0,BARCROFT,1888,8995,1949,,446,,Sold,,,https://www.redfin.com/VA/Arlington/375-S-George-Mason-Dr-22204/home/11261746,BRIGHT MLS,VAAR2041954,N,Y,38.8652543,-77.1052999
PAST SALE,March-20-2024,Single Family Residential,124 S Park Dr,Arlington,VA,22204,727000,3,1.0,BARCROFT,1144,5768,1940,,635,,Sold,,,https://www.redfin.com/VA/Arlington/124-S-Park-Dr-22204/home/11258338,BRIGHT MLS,VAAR2040086,N,Y,38.8640339,-77.1172928
PAST SALE,December-21-2023,Condo/Co-op,4324 N Pershing Dr N #3,Arlington,VA,22203,280400,1,1.0,ARLINGTON OAKS,666,,1940,,421,465,Sold,,,https://www.redfin.com/VA/Arlington/4324-N-Pershing-Dr-22203/unit-3/home/143373806,BRIGHT MLS,VAAR2037812,N,Y,38.8719305,-77.1075296
PAST SALE,February-2-2024,Single Family Residential,3125 12th St S,Arlington,VA,22204,1113000,4,2.5,ARL VIILAGE/ARL HILLS,2138,8321,1938,,521,,Sold,,,https://www.redfin.com/VA/Arlington/3125-12th-St-S-22204/home/11272973,BRIGHT MLS,VAAR2038858,N,Y,38.8602754,-77.0898794
PAST SALE,February-20-2024,Single Family Residential,5887 2nd St S,Arlington,VA,22204,915000,5,3.0,SPY HILL BLVD MANOR,2276,7000,1951,,402,,Sold,,,https://www.redfin.com/VA/Arlington/5887-2nd-St-S-22204/home/11258478,BRIGHT MLS,VAAR2039632,N,Y,38.8649141,-77.1320901
PAST SALE,April-22-2024,Condo/Co-op,4500 S Four Mile Run Dr #718,Arlington,VA,22204,399000,2,2.0,THE BRITTANY,1129,,2005,,353,750,Sold,,,https://www.redfin.com/VA/Arlington/4500-S-Four-Mile-Run-Dr-22204/unit-718/home/11281978,BRIGHT MLS,VAAR2041200,N,Y,38.8540009,-77.1059089
PAST SALE,March-29-2024,Condo/Co-op,2505-D S Walter Reed Dr Unit D,Arlington,VA,22206,417000,2,1.0,THE ARLINGTON,800,,1950,,521,351,Sold,,,https://www.redfin.com/VA/Arlington/2505-S-Walter-Reed-Dr-22206/unit-D/home/11266855,BRIGHT MLS,VAAR2040390,N,Y,38.8440205,-77.1003059
PAST SALE,March-19-2024,Single Family Residential,120 N Liberty St,Arlington,VA,22203,1270000,4,3.5,SPY HILL BLVD MANOR,3185,4025,1979,,399,29,Sold,,,https://www.redfin.com/VA/Arlington/120-N-Liberty-St-22203/home/11241523,BRIGHT MLS,VAAR2040030,N,Y,38.8693895,-77.1370426
PAST SALE,January-26-2024,Townhouse,70 N Bedford St Unit 70B,Arlington,VA,22201,582000,3,1.5,BEDFORD PARK,1246,,1983,,467,449,Sold,,,https://www.redfin.com/VA/Arlington/70-N-Bedford-St-22201/unit-70B/home/11255676,BRIGHT MLS,VAAR2038588,N,Y,38.87556,-77.086793
PAST SALE,April-5-2024,Condo/Co-op,989 S Buchanan St #325,Arlington,VA,22204,545000,2,2.0,TRAFALGAR FLATS,1018,,2019,,535,466,Sold,,,https://www.redfin.com/VA/Arlington/989-S-Buchanan-St-22204/unit-325/home/145331647,BRIGHT MLS,VAAR2040644,N,Y,38.856969,-77.1084525
PAST SALE,,Condo/Co-op,801 S Greenbrier St #305,Arlington,VA,22204,483120,2,2.0,,1300,,2005,,372,,,,,https://www.redfin.com/VA/Arlington/801-S-Greenbrier-St-22204/unit-305/home/11281602,,,N,Y,38.8578548,-77.1192458
PAST SALE,,Single Family Residential,5724 4th St N,Arlington,VA,22205,1210000,3,3.5,,1716,5768,1991,,705,,,,,https://www.redfin.com/VA/Arlington/5724-4th-St-N-22205/home/11242961,,,N,Y,38.8701805,-77.1292585
PAST SALE,December-15-2023,Single Family Residential,128 N Park Dr,Arlington,VA,22203,1360000,4,3.0,ARLINGTON FOREST,4074,6096,1941,,334,,Sold,,,https://www.redfin.com/VA/Arlington/128-N-Park-Dr-22203/home/160465062,BRIGHT MLS,VAAR2037216,N,Y,38.868854,-77.1161362
PAST SALE,May-30-2024,Single Family Residential,2616 2nd Rd N,Arlington,VA,22201,2385000,5,4.5,CLARENDON,5168,6250,2020,,461,,Sold,,,https://www.redfin.com/VA/Arlington/2616-2nd-Rd-N-22201/home/11255551,BRIGHT MLS,VAAR2042058,N,Y,38.8776203,-77.0893173
PAST SALE,February-15-2024,Condo/Co-op,4600 S Four Mile Run Dr #1024,Arlington,VA,22204,177500,0,1.0,THE CARLTON,668,,1965,,266,618,Sold,,,https://www.redfin.com/VA/Arlington/4600-S-Four-Mile-Run-Dr-22204/unit-1024/home/11266535,BRIGHT MLS,VAAR2039606,N,Y,38.8548626,-77.1069563
PAST SALE,April-16-2024,Townhouse,511 S Wayne St,Arlington,VA,22204,588000,2,1.0,FORT CRAIG,850,2750,1940,,692,,Sold,,,https://www.redfin.com/VA/Arlington/511-S-Wayne-St-22204/home/11262649,BRIGHT MLS,VAAR2040490,N,Y,38.8692477,-77.0834252
PAST SALE,March-18-2024,Townhouse,1013 S Taylor Ct,Arlington,VA,22204,1096000,3,3.0,Arlington,2200,1201,2021,,498,148,Sold,,,https://www.redfin.com/VA/Arlington/1013-S-Taylor-Ct-22204/home/175527122,BRIGHT MLS,VAAR2040586,N,Y,38.8579676,-77.1031441
PAST SALE,December-18-2023,Single Family Residential,1700 13th St S,Arlington,VA,22204,760000,4,2.0,SOUTHGATE,2440,6197,1958,,311,,Sold,,,https://www.redfin.com/VA/Arlington/1700-13th-St-S-22204/home/11274005,BRIGHT MLS,VAAR2037482,N,Y,38.8629742,-77.0731078
PAST SALE,,Single Family Residential,537 N Livingston St,Arlington,VA,22203,1175000,3,2.5,,2486,6933,1961,,473,,,,,https://www.redfin.com/VA/Arlington/537-N-Livingston-St-22203/home/11241206,,,N,Y,38.8704355,-77.1394608
PAST SALE,December-12-2023,Single Family Residential,724 S Wayne St,Arlington,VA,22204,1115000,3,3.0,ARLINGTON HEIGHTS,2836,9547,1948,,393,,Sold,,,https://www.redfin.com/VA/Arlington/724-S-Wayne-St-22204/home/11262889,BRIGHT MLS,VAAR2036700,N,Y,38.8668491,-77.0833149
PAST SALE,May-23-2024,Townhouse,1400 S Barton St #411,Arlington,VA,22204,475000,2,1.0,ARLINGTON VILLAGE,994,,1939,,478,548,Sold,,,https://www.redfin.com/VA/Arlington/1400-S-Barton-St-22204/unit-411/home/11273201,BRIGHT MLS,VAAR2043162,N,Y,38.8594834,-77.0831231
PAST SALE,January-19-2024,Townhouse,4305 4th Ct N,Arlington,VA,22203,980000,3,3.5,BUCKINGHAM COMMONS,1521,872,2012,,644,176,Sold,,,https://www.redfin.com/VA/Arlington/4305-4th-Ct-N-22203/home/23385401,BRIGHT MLS,VAAR2038414,N,Y,38.8738726,-77.1090199
PAST SALE,April-18-2024,Townhouse,2518-D S Arlington Mill Dr #4,Arlington,VA,22206,725000,2,3.5,WINDGATE OF ARL,1860,,1982,,390,495,Sold,,,https://www.redfin.com/VA/Arlington/2518-S-Arlington-Mill-Dr-22206/unit-D/home/167108245,BRIGHT MLS,VAAR2041026,N,Y,38.8440532,-77.0961175
PAST SALE,March-22-2024,Townhouse,6000 Kelsey Ct,Falls Church,VA,22044,775000,3,3.0,ASHLAWN RIDGE,2241,2363,1992,,346,135,Sold,,,https://www.redfin.com/VA/Falls-Church/6000-Kelsey-Ct-22044/home/9570695,BRIGHT MLS,VAFX2165214,N,Y,38.8665463,-77.138289
PAST SALE,May-10-2024,Townhouse,1132 S Lincoln St,Arlington,VA,22204,1000000,5,4.5,Arlington,2527,1472,2015,,396,155,Sold,,,https://www.redfin.com/VA/Arlington/1132-S-Lincoln-St-22204/home/101388472,BRIGHT MLS,VAAR2042452,N,Y,38.8596214,-77.0928068
PAST SALE,April-22-2024,Single Family Residential,622 N Jefferson St,Arlington,VA,22205,825000,2,1.0,BONAIR,990,8945,1954,,833,,Sold,,,https://www.redfin.com/VA/Arlington/622-N-Jefferson-St-22205/home/11242731,BRIGHT MLS,VAAR2040522,N,Y,38.8739731,-77.1275297
PAST SALE,February-12-2024,Single Family Residential,1226 S Forest Dr,Arlington,VA,22204,860000,4,3.0,VIRGINIA HEIGHTS ETC,1368,8573,1953,,629,,Sold,,,https://www.redfin.com/VA/Arlington/1226-S-Forest-Dr-22204/home/11265531,BRIGHT MLS,VAAR2039214,N,Y,38.8486998,-77.1146178
PAST SALE,May-15-2024,Condo/Co-op,4501 Arlington Blvd #231,Arlington,VA,22203,220000,0,1.0,THE CHATHAM,533,,1965,,413,433,Sold,,,https://www.redfin.com/VA/Arlington/4501-Arlington-Blvd-22203/unit-231/home/11257640,BRIGHT MLS,VAAR2041850,N,Y,38.8692333,-77.1087161
PAST SALE,January-5-2024,Single Family Residential,1508 S Walter Reed Dr,Arlington,VA,22204,645000,3,2.0,ARL VIILAGE/ARL HILLS,1017,6550,1941,,634,,Sold,,,https://www.redfin.com/VA/Arlington/1508-S-Walter-Reed-Dr-22204/home/11273715,BRIGHT MLS,VAAR2032106,N,Y,38.8565298,-77.0886985
PAST SALE,February-8-2024,Condo/Co-op,4500 S Four Mile Run Dr #607,Arlington,VA,22204,390000,2,2.0,THE BRITTANY,1152,,2005,,339,701,Sold,,,https://www.redfin.com/VA/Arlington/4500-S-Four-Mile-Run-Dr-22204/unit-607/home/11281933,BRIGHT MLS,VAAR2038752,N,Y,38.8540009,-77.1059089
PAST SALE,January-31-2024,Condo/Co-op,2055 26th St S Unit 5-310,Arlington,VA,22206,350000,1,1.0,GROVE AT ARLINGTON,731,,2003,,479,347,Sold,,,https://www.redfin.com/VA/Arlington/2055-26th-St-S-22206/unit-5-310/home/11282359,BRIGHT MLS,VAAR2038854,N,Y,38.8480277,-77.076154
PAST SALE,April-22-2024,Townhouse,420 Thomas St N,Arlington,VA,22203,1200000,4,4.0,BUCKINGHAM COMMONS,2108,1742,2011,,569,176,Sold,,,https://www.redfin.com/VA/Arlington/420-N-Thomas-St-22203/home/23385500,BRIGHT MLS,VAAR2041018,N,Y,38.8741914,-77.109357
PAST SALE,January-19-2024,Townhouse,803 S Ode St,Arlington,VA,22204,615000,3,2.0,FOXCROFT,1392,4400,1938,,442,,Sold,,,https://www.redfin.com/VA/Arlington/803-S-Ode-St-22204/home/11263615,BRIGHT MLS,VAAR2038580,N,Y,38.8682878,-77.0715227
PAST SALE,February-9-2024,Townhouse,4133 S Four Mile Run Dr S Unit B,Arlington,VA,22204,600000,3,2.5,WEST VILLAGE OF SHIRLINGTON,1356,,1966,,442,574,Sold,,,https://www.redfin.com/VA/Arlington/4133-S-Four-Mile-Run-Dr-22204/unit-B/home/189056018,BRIGHT MLS,VAAR2038830,N,Y,38.850718,-77.0970729
PAST SALE,December-11-2023,Townhouse,3008 Federal Hill Dr,Falls Church,VA,22044,708000,3,3.5,FEDERAL HILL,2508,1438,1980,,282,233,Sold,,,https://www.redfin.com/VA/Falls-Church/3008-Federal-Hill-Dr-22044/home/9568539,BRIGHT MLS,VAFX2151368,N,Y,38.8672073,-77.1397887
PAST SALE,April-1-2024,Condo/Co-op,4600 S Four Mile Run Dr #1124,Arlington,VA,22204,182400,0,1.0,THE CARLTON,668,,1965,,273,618,Sold,,,https://www.redfin.com/VA/Arlington/4600-S-Four-Mile-Run-Dr-22204/unit-1124/home/11266577,BRIGHT MLS,VAAR2040650,N,Y,38.8548626,-77.1069563
PAST SALE,May-15-2024,Townhouse,2341 S Queen St,Arlington,VA,22202,1155000,3,3.5,FOREST HILLS COMMON,2904,2832,1977,,398,127,Sold,,,https://www.redfin.com/VA/Arlington/2341-S-Queen-St-22202/home/11277699,BRIGHT MLS,VAAR2042448,N,Y,38.8517142,-77.0727111
PAST SALE,March-14-2024,Townhouse,1644 10th St S,Arlington,VA,22204,578500,3,2.0,CARRINGTON VILLAGE,1229,854,1986,,471,100,Sold,,,https://www.redfin.com/VA/Arlington/1644-10th-St-S-22204/home/11273912,BRIGHT MLS,VAAR2039656,N,Y,38.8646275,-77.0731919
PAST SALE,April-12-2024,Condo/Co-op,4500 S Four Mile Run Dr #1108,Arlington,VA,22204,245000,1,1.0,THE BRITTANY,604,,2005,,406,426,Sold,,,https://www.redfin.com/VA/Arlington/4500-S-Four-Mile-Run-Dr-22204/unit-1108/home/11282103,BRIGHT MLS,VAAR2040790,N,Y,38.8540009,-77.1059089
PAST SALE,April-18-2024,Townhouse,657 N Tazewell St,Arlington,VA,22203,1039000,3,4.5,TOWNES OF BALLSTON,1874,980,1988,,554,247,Sold,,,https://www.redfin.com/VA/Arlington/657-N-Tazewell-St-22203/home/11242065,BRIGHT MLS,VAAR2040912,N,Y,38.8784357,-77.1128409
PAST SALE,May-13-2024,Townhouse,2260 S Garfield St #9,Arlington,VA,22206,615000,3,3.5,TOWNES OF SHIRLINGTON,1712,,2011,,359,595,Sold,,,https://www.redfin.com/VA/Arlington/2260-S-Garfield-St-22206/unit-9/home/40630059,BRIGHT MLS,VAAR2042132,N,Y,38.8491608,-77.0840576
PAST SALE,May-13-2024,Single Family Residential,313 N Kenmore St N,Arlington,VA,22201,1330000,4,2.0,ASHTON HEIGHTS,1674,9271,1925,,795,,Sold,,,https://www.redfin.com/VA/Arlington/313-N-Kenmore-St-22201/home/11256773,BRIGHT MLS,VAAR2041642,N,Y,38.8766415,-77.0979872
PAST SALE,May-13-2024,Single Family Residential,5302 12th St S,Arlington,VA,22204,735000,3,1.5,VIRGINIA HEIGHTS ETC,1400,2039,1950,,525,,Sold,,,https://www.redfin.com/VA/Arlington/5302-S-12th-St-22204/home/11265541,BRIGHT MLS,VAAR2041292,N,Y,38.8495587,-77.1163058
PAST SALE,January-29-2024,Single Family Residential,2812 1st Rd N,Arlington,VA,22201,1770000,5,4.0,CLARENDON,3520,6220,1934,,503,,Sold,,,https://www.redfin.com/VA/Arlington/2812-1st-Rd-N-22201/home/11255566,BRIGHT MLS,VAAR2037134,N,Y,38.8755471,-77.0894368
PAST SALE,May-7-2024,Single Family Residential,5729 1st St S,Arlington,VA,22204,1250000,4,4.0,GLEN CARLIN,2400,6000,1951,,521,,Sold,,,https://www.redfin.com/VA/Arlington/5729-1st-St-S-22204/home/11258437,BRIGHT MLS,VAAR2039430,N,Y,38.8655377,-77.1270588
PAST SALE,January-15-2024,Condo/Co-op,3400 25th St S #31,Arlington,VA,22206,230000,2,1.0,VALLEY HEIGHTS,803,,1967,,286,559,Sold,,,https://www.redfin.com/VA/Arlington/3400-25th-St-S-22206/unit-31/home/11272299,BRIGHT MLS,VAAR2038358,N,Y,38.847609,-77.084854
PAST SALE,April-10-2024,Single Family Residential,2448 S Culpeper St,Arlington,VA,22206,850000,5,3.0,CLAREMONT,3002,6052,1954,,283,,Sold,,,https://www.redfin.com/VA/Arlington/2448-S-Culpeper-St-22206/home/11265922,BRIGHT MLS,VAAR2040422,N,Y,38.8443359,-77.1029959
PAST SALE,May-7-2024,Townhouse,2057 S Glebe Rd S,Arlington,VA,22204,640000,3,3.0,HENSON PARK/PERRY ESTATE,1739,4420,1989,,368,197,Sold,,,https://www.redfin.com/VA/Arlington/2057-S-Glebe-Rd-22204/home/11271317,BRIGHT MLS,VAAR2041144,N,Y,38.8515627,-77.084761
PAST SALE,February-29-2024,Condo/Co-op,4600 S Four Mile Run Dr #735,Arlington,VA,22204,160000,0,1.0,THE CARLTON,546,,1965,,293,676,Sold,,,https://www.redfin.com/VA/Arlington/4600-S-Four-Mile-Run-Dr-22204/unit-735/home/11266420,BRIGHT MLS,VAAR2039708,N,Y,38.8548626,-77.1069563
PAST SALE,February-21-2024,Single Family Residential,2617 12th St S,Arlington,VA,22204,890000,3,3.0,ARL VIILAGE/ARL HILLS,2176,5364,1935,,409,,Sold,,,https://www.redfin.com/VA/Arlington/2617-12th-St-S-22204/home/11272941,BRIGHT MLS,VAAR2038742,N,Y,38.861363,-77.0848886
PAST SALE,December-22-2023,Townhouse,969 S Rolfe St Unit A,Arlington,VA,22204,550000,3,2.5,WESTHAMPTON MEWS,1584,,1979,,347,450,Sold,,,https://www.redfin.com/VA/Arlington/969-S-Rolfe-St-22204/unit-A/home/188640598,BRIGHT MLS,VAAR2037644,N,Y,38.8656642,-77.0756515
PAST SALE,May-17-2024,Condo/Co-op,4600 S Four Mile Run Dr #530,Arlington,VA,22204,269000,2,1.0,THE CARLTON,1084,,1965,,248,1003,Sold,,,https://www.redfin.com/VA/Arlington/4600-S-Four-Mile-Run-Dr-22204/unit-530/home/11266331,BRIGHT MLS,VAAR2041764,N,Y,38.8548626,-77.1069563
PAST SALE,April-15-2024,Single Family Residential,1306 S Kenmore Cir,Arlington,VA,22204,1358000,5,3.5,MAJESTIC OAK,3549,5638,2007,,383,150,Sold,,,https://www.redfin.com/VA/Arlington/1306-S-Kenmore-Cir-22204/home/22014393,BRIGHT MLS,VAAR2040038,N,Y,38.8580811,-77.0919799
PAST SALE,May-31-2024,Condo/Co-op,2596-F S Arlington Mill Dr S Unit F,Arlington,VA,22206,315000,1,1.0,WINDGATE OF ARL,623,,1983,,506,351,Sold,,,https://www.redfin.com/VA/Arlington/2596-F-S-Arlington-Mill-Dr-22206/unit-F/home/190527824,BRIGHT MLS,VAAR2042596,N,Y,38.8435,-77.09455
PAST SALE,March-11-2024,Townhouse,2448 S Walter Reed Dr Unit B,Arlington,VA,22206,700000,2,3.0,WINDGATE OF ARL,1292,,1979,,542,475,Sold,,,https://www.redfin.com/VA/Arlington/2448-S-Walter-Reed-Dr-22206/unit-B/home/189545749,BRIGHT MLS,VAAR2039586,N,Y,38.8464204,-77.0999501
PAST SALE,April-16-2024,Condo/Co-op,5051 7th Rd S #101,Arlington,VA,22204,310000,1,1.0,PARK SPRING,835,,1969,,371,452,Sold,,,https://www.redfin.com/VA/Arlington/5051-7th-Rd-S-22204/unit-101/home/11259517,BRIGHT MLS,VAAR2038928,N,Y,38.8605656,-77.1169826
PAST SALE,May-15-2024,Townhouse,2411 S Walter Reed Dr,Arlington,VA,22206,547000,2,2.5,HEATHERLEA,1024,,1983,,534,365,Sold,,,https://www.redfin.com/VA/Arlington/2411-S-Walter-Reed-Dr-22206/home/190390906,BRIGHT MLS,VAAR2041170,N,Y,38.8448219,-77.0976011
PAST SALE,April-2-2024,Single Family Residential,3300 6th St S,Arlington,VA,22204,755000,3,2.5,ARLINGTON HEIGHTS,912,5517,1938,,828,,Sold,,,https://www.redfin.com/VA/Arlington/3300-6th-St-S-22204/home/11263007,BRIGHT MLS,VAAR2041218,N,Y,38.8666554,-77.0934531
PAST SALE,January-25-2024,Condo/Co-op,4600 S Four Mile Run Dr #637,Arlington,VA,22204,167000,0,1.0,THE CARLTON,546,,1965,,306,505,Sold,,,https://www.redfin.com/VA/Arlington/4600-S-Four-Mile-Run-Dr-22204/unit-637/home/11266380,BRIGHT MLS,VAAR2038708,N,Y,38.8548626,-77.1069563
PAST SALE,May-15-2024,Single Family Residential,2620 12th St S,Arlington,VA,22204,1075000,5,3.0,ARL VIILAGE/ARL HILLS,2432,5250,1972,,442,,Sold,,,https://www.redfin.com/VA/Arlington/2620-12th-St-S-22204/home/11273140,BRIGHT MLS,VAAR2041900,N,Y,38.8610178,-77.0847948
PAST SALE,May-31-2024,Condo/Co-op,4500 S Four Mile Run Dr #121,Arlington,VA,22204,304000,1,1.0,THE BRITTANY,856,,2005,,355,530,Sold,,,https://www.redfin.com/VA/Arlington/4500-S-Four-Mile-Run-Dr-22204/unit-121/home/11281778,BRIGHT MLS,VAAR2041870,N,Y,38.8540009,-77.1059089
PAST SALE,January-19-2024,Townhouse,2206 S Pollard St,Arlington,VA,22204,538000,2,2.0,FORT BARNARD HEIGHTS,1206,2500,1945,,446,,Sold,,,https://www.redfin.com/VA/Arlington/2206-S-Pollard-St-22204/home/11271773,BRIGHT MLS,VAAR2038298,N,Y,38.8476209,-77.0923879
PAST SALE,December-21-2023,Single Family Residential,5108 9th St N,Arlington,VA,22205,815000,2,1.0,SUMMIT & VEITCH,1092,7260,1940,,746,,Sold,,,https://www.redfin.com/VA/Arlington/5108-9th-St-N-22205/home/11242042,BRIGHT MLS,VAAR2035126,N,Y,38.8797228,-77.1233705
PAST SALE,January-24-2024,Condo/Co-op,3601 5th St S #108,Arlington,VA,22204,193000,1,1.0,STRATTON HOUSE,490,,1958,,394,389,Sold,,,https://www.redfin.com/VA/Arlington/3601-5th-St-S-22204/unit-108/home/11260774,BRIGHT MLS,VAAR2037834,N,Y,38.8671892,-77.0967697
PAST SALE,May-6-2024,Condo/Co-op,6001 Arlington Blvd #621,Falls Church,VA,22044,235000,2,1.0,WOODLAKE TOWERS CONDO,980,,1970,,240,726,Sold,,,https://www.redfin.com/VA/Falls-Church/6001-Arlington-Blvd-22044/unit-621/home/9568989,BRIGHT MLS,VAFX2167336,N,Y,38.8651765,-77.1375577
PAST SALE,January-11-2024,Single Family Residential,1717 S Monroe St S,Arlington,VA,22204,793000,3,2.0,DOUGLAS PARK NEW ARL.,1456,5000,1941,,545,,Sold,,,https://www.redfin.com/VA/Arlington/1717-S-Monroe-St-22204/home/11264026,BRIGHT MLS,VAAR2035070,N,Y,38.8541548,-77.0907487
PAST SALE,January-10-2024,Townhouse,1021 S Barton St #119,Arlington,VA,22204,330000,1,1.0,ARLINGTON VILLAGE,800,,1939,,413,430,Sold,,,https://www.redfin.com/VA/Arlington/1021-S-Barton-St-22204/unit-119/home/11272369,BRIGHT MLS,VAAR2038004,N,Y,38.8628834,-77.0834048
PAST SALE,March-15-2024,Condo/Co-op,4501 Arlington Blvd #722,Arlington,VA,22203,335000,2,1.0,THE CHATHAM,1083,,1965,,309,850,Sold,,,https://www.redfin.com/VA/Arlington/4501-Arlington-Blvd-22203/unit-722/home/11257788,BRIGHT MLS,VAAR2040056,N,Y,38.8692333,-77.1087161
PAST SALE,April-2-2024,Single Family Residential,2032 S Langley St,Arlington,VA,22204,860000,5,3.5,NAUCK GREEN VALLEY,2536,7301,2003,,339,,Sold,,,https://www.redfin.com/VA/Arlington/2032-S-Langley-St-22204/home/11271496,BRIGHT MLS,VAAR2039812,N,Y,38.850743,-77.0891649
PAST SALE,April-30-2024,Single Family Residential,3215 1st St N,Arlington,VA,22201,2750000,6,5.0,ASHTON HEIGHTS,5216,7386,2016,,527,,Sold,,,https://www.redfin.com/VA/Arlington/3215-1st-St-N-22201/home/11256905,BRIGHT MLS,VAAR2038986,N,Y,38.8741532,-77.0950269
PAST SALE,March-18-2024,Townhouse,744 N Vermont St,Arlington,VA,22203,799990,3,3.0,BALLSTON MEWS I,1327,,1982,,603,440,Sold,,,https://www.redfin.com/VA/Arlington/744-N-Vermont-St-22203/home/190508601,BRIGHT MLS,VAAR2039316,N,Y,38.878953,-77.115172
PAST SALE,February-27-2024,Single Family Residential,900 N Lebanon St,Arlington,VA,22205,900000,4,2.0,DOMINION HILLS,1650,6860,1947,,545,,Sold,,,https://www.redfin.com/VA/Arlington/900-N-Lebanon-St-22205/home/11240940,BRIGHT MLS,VAAR2036964,N,Y,38.8751048,-77.1419888
PAST SALE,March-20-2024,Condo/Co-op,2301 25th St S Unit 4-204,Arlington,VA,22206,475000,2,1.0,THE GROVE AT ARLINGTON,900,,2005,,528,426,Sold,,,https://www.redfin.com/VA/Arlington/2301-25th-St-S-22206/unit-4-204/home/11282306,BRIGHT MLS,VAAR2039758,N,Y,38.8479099,-77.0760245
PAST SALE,March-7-2024,Single Family Residential,15 Aberdeen St S,Arlington,VA,22204,829000,3,2.0,BARCROFT,1490,11515,1940,,556,,Sold,,,https://www.redfin.com/VA/Arlington/15-S-Aberdeen-St-22204/home/11258408,BRIGHT MLS,VAAR2039176,N,Y,38.8663431,-77.1143189
PAST SALE,May-30-2024,Condo/Co-op,4500 S Four Mile Run Dr #1001,Arlington,VA,22204,480000,3,2.0,BRITTANY,1448,,2005,,331,793,Sold,,,https://www.redfin.com/VA/Arlington/4500-S-Four-Mile-Run-Dr-22204/unit-1001/home/11282063,BRIGHT MLS,VAAR2041112,N,Y,38.8540009,-77.1059089
PAST SALE,March-20-2024,Condo/Co-op,4141 N Henderson Rd #913,Arlington,VA,22203,365000,1,1.0,HYDE PARK,916,,1973,,398,814,Sold,,,https://www.redfin.com/VA/Arlington/4141-N-Henderson-Rd-22203/unit-913/home/11257389,BRIGHT MLS,VAAR2039654,N,Y,38.8758024,-77.1094008
PAST SALE,April-19-2024,Condo/Co-op,3701 5th St S #505,Arlington,VA,22204,230000,1,1.0,STRATTON HOUSE,720,,1958,,319,761,Sold,,,https://www.redfin.com/VA/Arlington/3701-5th-St-S-22204/unit-505/home/11260882,BRIGHT MLS,VAAR2038946,N,Y,38.8668515,-77.0978596
PAST SALE,December-22-2023,Single Family Residential,15 N Fenwick St,Arlington,VA,22201,1195000,5,2.5,ASHTON HEIGHTS,2453,6605,1947,,487,,Sold,,,https://www.redfin.com/VA/Arlington/15-N-Fenwick-St-22201/home/11255973,BRIGHT MLS,VAAR2036782,N,Y,38.873987,-77.0899571
PAST SALE,February-28-2024,Condo/Co-op,4061 S Four Mile Run Dr #403,Arlington,VA,22204,500000,2,2.0,WEST VILLAGE OF SHIRLINGTON,1135,,1966,,441,475,Sold,,,https://www.redfin.com/VA/Arlington/4061-S-Four-Mile-Run-Dr-22204/unit-403/home/12041729,BRIGHT MLS,VAAR2039418,N,Y,38.847313,-77.0950692
PAST SALE,April-10-2024,Townhouse,207 S Courthouse Rd,Arlington,VA,22204,669000,2,2.0,FORT CRAIG,1377,2500,1939,,486,,Sold,,,https://www.redfin.com/VA/Arlington/207-S-Courthouse-Rd-22204/home/11262806,BRIGHT MLS,VAAR2040426,N,Y,38.8713859,-77.0815164
PAST SALE,January-22-2024,Vacant Land,4628 3rd St S,Arlington,VA,22204,890000,,,BARCROFT,,12600,,,,,Sold,,,https://www.redfin.com/VA/Arlington/4628-3rd-St-S-22204/home/11260643,BRIGHT MLS,VAAR2033668,N,Y,38.8643114,-77.1112338
PAST SALE,January-29-2024,Vacant Land,3rd St S,Arlington,VA,22204,250000,,,BARCROFT,,4200,,,,,Sold,,,https://www.redfin.com/VA/Arlington/3rd-St-S-22204/home/22983008,BRIGHT MLS,VAAR2033678,N,Y,38.864345,-77.111523
PAST SALE,December-22-2023,Single Family Residential,3110 1st St N,Arlington,VA,22201,1450000,4,3.5,ASHTON HEIGHTS,2876,6279,1951,,504,,Sold,,,https://www.redfin.com/VA/Arlington/3110-1st-St-N-22201/home/11256950,BRIGHT MLS,VAAR2036778,N,Y,38.874237,-77.0931486
PAST SALE,April-30-2024,Condo/Co-op,4600 Four Mile Run Dr #426,Arlington,VA,22204,239900,1,1.0,THE CARLTON,881,,1965,,272,816,Sold,,,https://www.redfin.com/VA/Arlington/4600-S-Four-Mile-Run-Dr-22204/unit-426/home/11266285,BRIGHT MLS,VAAR2041064,N,Y,38.8548626,-77.1069563
PAST SALE,April-23-2024,Condo/Co-op,4600 S Four Mile Run Dr #823,Arlington,VA,22204,198000,0,1.0,THE CARLTON,668,,1965,,296,620,Sold,,,https://www.redfin.com/VA/Arlington/4600-S-Four-Mile-Run-Dr-22204/unit-823/home/11266450,BRIGHT MLS,VAAR2041172,N,Y,38.8548626,-77.1069563
PAST SALE,February-27-2024,Condo/Co-op,708 S Arlington Mill Dr #14304,Arlington,VA,22204,251000,1,1.0,PARK GLEN,539,,1947,,466,371,Sold,,,https://www.redfin.com/VA/Arlington/708-S-Arlington-Mill-Dr-22204/unit-14304/home/11259407,BRIGHT MLS,VAAR2038950,N,Y,38.8603557,-77.1151293
PAST SALE,April-1-2024,Vacant Land,3704 7th St S,Arlington,VA,22204,850000,,,ALCOVA HEIGHTS,,8147,,,,,Sold,,,https://www.redfin.com/VA/Arlington/3704-7th-St-S-22204/home/11261175,BRIGHT MLS,VAAR2039906,N,Y,38.8644418,-77.0968418
PAST SALE,May-31-2024,Single Family Residential,730 N Buchanan St,Arlington,VA,22203,1060000,4,3.0,BRANDON VILLAGE,2690,6785,1941,,394,,Sold,,,https://www.redfin.com/VA/Arlington/730-N-Buchanan-St-22203/home/11242418,BRIGHT MLS,VAAR2042754,N,Y,38.8776226,-77.1193931
PAST SALE,March-22-2024,Condo/Co-op,5353 Columbia Pike #308,Arlington,VA,22204,247500,1,1.5,THE PALAZZO,786,,1964,,315,699,Sold,,,https://www.redfin.com/VA/Arlington/5353-Columbia-Pike-22204/unit-308/home/11260090,BRIGHT MLS,VAAR2039610,N,Y,38.8549861,-77.1167404
PAST SALE,April-1-2024,Single Family Residential,209 S Abingdon St,Arlington,VA,22204,1130000,4,3.0,BARCROFT,1904,8450,1939,,593,,Sold,,,https://www.redfin.com/VA/Arlington/209-S-Abingdon-St-22204/home/11260281,BRIGHT MLS,VAAR2038940,N,Y,38.8656001,-77.1128129
PAST SALE,January-4-2024,Condo/Co-op,4600 S Four Mile Run Dr #213,Arlington,VA,22204,225000,1,1.0,THE CARLTON,828,,1965,,272,768,Sold,,,https://www.redfin.com/VA/Arlington/4600-S-Four-Mile-Run-Dr-22204/unit-213/home/11266188,BRIGHT MLS,VAAR2037544,N,Y,38.8548626,-77.1069563
PAST SALE,December-8-2023,Single Family Residential,415 Frederick St N,Arlington,VA,22203,1375000,4,3.5,BONAIR,3724,7326,2002,,369,,Sold,,,https://www.redfin.com/VA/Arlington/415-N-Frederick-St-22203/home/11243163,BRIGHT MLS,VAAR2036872,N,Y,38.874201,-77.1204824
PAST SALE,May-10-2024,Condo/Co-op,250 N Thomas St Unit 250-2,Arlington,VA,22203,268000,1,1.0,ARLINGTON OAKS,666,,1940,,402,487,Sold,,,https://www.redfin.com/VA/Arlington/250-N-Thomas-St-22203/unit-250-2/home/11258198,BRIGHT MLS,VAAR2041186,N,Y,38.8721667,-77.1064238
PAST SALE,,Condo/Co-op,4402 N Pershing Dr #44023,Arlington,VA,22203,330000,2,1.0,,936,,1940,,353,,,,,https://www.redfin.com/VA/Arlington/4402-N-Pershing-Dr-22203/unit-44023/home/11257963,,,N,Y,38.8705071,-77.1095034
PAST SALE,March-1-2024,Condo/Co-op,4522 28th Rd S Unit 12-1,Arlington,VA,22206,330000,1,1.0,HEATHERLEA,673,,1983,,490,365,Sold,,,https://www.redfin.com/VA/Arlington/4522-28th-Rd-S-22206/unit-12-1/home/11267790,BRIGHT MLS,VAAR2036148,N,Y,38.8445104,-77.096402
PAST SALE,January-29-2024,Condo/Co-op,4500 S Four Mile Run Dr #902,Arlington,VA,22204,385000,2,2.0,BRITTANY,1152,,2005,,334,710,Sold,,,https://www.redfin.com/VA/Arlington/4500-S-Four-Mile-Run-Dr-22204/unit-902/home/11282030,BRIGHT MLS,VAAR2037758,N,Y,38.8540009,-77.1059089
PAST SALE,January-19-2024,Single Family Residential,2701 19th St S,Arlington,VA,22204,810000,3,2.0,JOHNSON'S HILL,1508,10500,1942,,537,,Sold,,,https://www.redfin.com/VA/Arlington/2701-19th-St-S-22204/home/11271237,BRIGHT MLS,VAAR2038180,N,Y,38.8545598,-77.0833149
PAST SALE,December-29-2023,Townhouse,637 N Tazewell St N,Arlington,VA,22203,1015000,3,3.0,TOWNES OF BALLSTON,1827,980,1988,,556,248,Sold,,,https://www.redfin.com/VA/Arlington/637-N-Tazewell-St-22203/home/11242060,BRIGHT MLS,VAAR2037514,N,Y,38.8782429,-77.1125936
PAST SALE,December-27-2023,Townhouse,1400 S Edgewood St #517,Arlington,VA,22204,325000,1,1.0,ARLINGTON VILLAGE,800,,1939,,406,424,Sold,,,https://www.redfin.com/VA/Arlington/1400-S-Edgewood-St-22204/unit-517/home/11273394,BRIGHT MLS,VAAR2037536,N,Y,38.8590682,-77.0855087
PAST SALE,April-29-2024,Condo/Co-op,1016 S Wayne St #605,Arlington,VA,22204,529900,2,2.0,BARKLEY CONDO,1371,,1982,,387,620,Sold,,,https://www.redfin.com/VA/Arlington/1016-S-Wayne-St-22204/unit-605/home/11272580,BRIGHT MLS,VAAR2039830,N,Y,38.8628653,-77.0819377
PAST SALE,March-8-2024,Condo/Co-op,6001 Arlington Blvd #720,Falls Church,VA,22044,235000,1,1.0,WOODLAKE TOWERS CONDO,785,,1971,,299,581,Sold,,,https://www.redfin.com/VA/Falls-Church/6001-Arlington-Blvd-22044/unit-720/home/9569038,BRIGHT MLS,VAFX2159954,N,Y,38.8651765,-77.1375577
PAST SALE,February-9-2024,Condo/Co-op,4600 S Four Mile Run Dr #634,Arlington,VA,22204,235000,2,1.0,THE CARLTON,1084,,1965,,217,960,Sold,,,https://www.redfin.com/VA/Arlington/4600-S-Four-Mile-Run-Dr-22204/unit-634/home/11266377,BRIGHT MLS,VAAR2036358,N,Y,38.8548626,-77.1069563
PAST SALE,December-18-2023,Condo/Co-op,4501 Arlington Blvd Unit 125,Arlington,VA,22203,421000,3,2.0,THE CHATHAM,1446,,1965,,291,1132,Sold,,,https://www.redfin.com/VA/Arlington/4501-Arlington-Blvd-22203/unit-125/home/11257604,BRIGHT MLS,VAAR2037210,N,Y,38.8692333,-77.1087161
PAST SALE,January-23-2024,Condo/Co-op,3701 5th St S #412,Arlington,VA,22204,232900,1,1.0,STRATTON HOUSE,720,,1958,,323,761,Sold,,,https://www.redfin.com/VA/Arlington/3701-5th-St-S-22204/unit-412/home/11260876,BRIGHT MLS,VAAR2038344,N,Y,38.8668515,-77.0978596
PAST SALE,May-24-2024,Townhouse,1400 S Edgewood St #538,Arlington,VA,22204,562000,3,1.5,ARLINGTON VILLAGE,1268,,1939,,443,699,Sold,,,https://www.redfin.com/VA/Arlington/1400-S-Edgewood-St-22204/unit-538/home/11273415,BRIGHT MLS,VAAR2041830,N,Y,38.8590682,-77.0855087
PAST SALE,January-5-2024,Condo/Co-op,4225 N Henderson Rd #202,Arlington,VA,22203,415000,1,1.0,BALLSTON,850,,2005,,488,375,Sold,,,https://www.redfin.com/VA/Arlington/4225-N-Henderson-Rd-22203/unit-202/home/11281532,BRIGHT MLS,VAAR2037766,N,Y,38.8750691,-77.1099807
PAST SALE,April-30-2024,Townhouse,4346 4th St N,Arlington,VA,22203,1170000,3,4.0,Arlington,2309,930,2014,,507,180,Sold,,,https://www.redfin.com/VA/Arlington/4346-4th-St-N-22203/home/101388584,BRIGHT MLS,VAAR2040506,N,Y,38.872051,-77.109632
PAST SALE,April-30-2024,Condo/Co-op,1830 Columbia Pike #209,Arlington,VA,22204,190000,0,1.0,LANCASTER,530,,1964,,358,358,Sold,,,https://www.redfin.com/VA/Arlington/1830-Columbia-Pike-22204/unit-209/home/11272673,BRIGHT MLS,VAAR2040190,N,Y,38.8647549,-77.075961
PAST SALE,February-29-2024,Single Family Residential,859 N Madison St,Arlington,VA,22205,1085000,4,3.0,DOMINION HILLS,2768,7150,1955,,392,,Sold,,,https://www.redfin.com/VA/Arlington/859-N-Madison-St-22205/home/11240742,BRIGHT MLS,VAAR2037792,N,Y,38.8740841,-77.1447917
PAST SALE,February-7-2024,Townhouse,5033 9th St S,Arlington,VA,22204,565000,2,3.0,BARCROFT TOWNH,1452,767,1989,,389,210,Sold,,,https://www.redfin.com/VA/Arlington/5033-9th-St-S-22204/home/11260188,BRIGHT MLS,VAAR2038796,N,Y,38.8568359,-77.1141563
PAST SALE,January-16-2024,Condo/Co-op,1501 S George Mason Dr #10,Arlington,VA,22204,250000,1,1.0,GEORGE MASON VIL,687,,1965,,364,540,Sold,,,https://www.redfin.com/VA/Arlington/1501-S-George-Mason-Dr-22204/unit-10/home/11264516,BRIGHT MLS,VAAR2038292,N,Y,38.8520549,-77.1036366
PAST SALE,February-1-2024,Condo/Co-op,4141 N Henderson Rd N #103,Arlington,VA,22203,390000,1,1.5,HYDE PARK,1170,,1973,,333,974,Sold,,,https://www.redfin.com/VA/Arlington/4141-N-Henderson-Rd-22203/unit-103/home/11257168,BRIGHT MLS,VAAR2036592,N,Y,38.8758024,-77.1094008
PAST SALE,January-22-2024,Condo/Co-op,2588-C S C S Arlington Mill Dr 3 Unit 3C,Arlington,VA,22206,475000,2,1.0,WINDGATE OF ARL,912,,1983,,521,345,Sold,,,https://www.redfin.com/VA/Arlington/2588-C-S-Arlington-Mill-Dr-22206/unit-3C/home/188466364,BRIGHT MLS,VAAR2037636,N,Y,38.84342,-77.09514
PAST SALE,May-23-2024,Single Family Residential,1601 S Stafford St,Arlington,VA,22204,715000,4,3.0,DOUGLAS PARK,2094,6016,1960,,341,,Sold,,,https://www.redfin.com/VA/Arlington/1601-S-Stafford-St-22204/home/11264466,BRIGHT MLS,VAAR2039406,N,Y,38.8534964,-77.0987259
PAST SALE,February-6-2024,Single Family Residential,5224 7th St S,Arlington,VA,22204,965000,5,3.0,COLUMBIA TERRACE,2352,6149,1960,,410,,Sold,,,https://www.redfin.com/VA/Arlington/5224-7th-St-S-22204/home/11260021,BRIGHT MLS,VAAR2037474,N,Y,38.8586724,-77.1196519
PAST SALE,,Single Family Residential,113 N Liberty St,Arlington,VA,22203,274900,4,4.0,,2085,6086,1979,,132,,,,,https://www.redfin.com/VA/Arlington/113-N-Liberty-St-22203/home/11241512,,,N,Y,38.8691984,-77.1367703
PAST SALE,April-17-2024,Condo/Co-op,6001 Arlington Blvd #501,Falls Church,VA,22044,247500,2,1.0,WOODLAKE TOWERS,962,,1970,,257,687,Sold,,,https://www.redfin.com/VA/Falls-Church/6001-Arlington-Blvd-22044/unit-501/home/9568895,BRIGHT MLS,VAFX2161526,N,Y,38.8651765,-77.1375577
PAST SALE,February-20-2024,Condo/Co-op,4500 28th Rd S Unit 10-5 UNIT A,Arlington,VA,22206,462500,2,1.0,HEATHERLEA,1062,,1983,,435,365,Sold,,,https://www.redfin.com/VA/Arlington/4500-28th-Rd-S-22206/unit-10-5-UNIT-A/home/188784693,BRIGHT MLS,VAAR2037902,N,Y,38.8447976,-77.095859
PAST SALE,January-9-2024,Single Family Residential,5006 S Chesterfield Rd,Arlington,VA,22206,1420000,5,3.5,CLAREMONT,2823,6170,1947,,503,,Sold,,,https://www.redfin.com/VA/Arlington/5006-S-Chesterfield-Rd-22206/home/11265766,BRIGHT MLS,VAAR2037258,N,Y,38.8452265,-77.1086715
PAST SALE,February-9-2024,Condo/Co-op,5012 Columbia Pike #3,Arlington,VA,22204,208000,1,1.0,FREDERICK COURTS,690,,1947,,301,448,Sold,,,https://www.redfin.com/VA/Arlington/5012-Columbia-Pike-22204/unit-3/home/11264991,BRIGHT MLS,VAAR2036950,N,Y,38.854981,-77.112725
PAST SALE,May-8-2024,Single Family Residential,656 S Harrison St,Arlington,VA,22204,865000,5,2.0,COLUMBIA TERRACE,2352,10245,1958,,368,,Sold,,,https://www.redfin.com/VA/Arlington/656-S-Harrison-St-22204/home/11259613,BRIGHT MLS,VAAR2040302,N,Y,38.8592815,-77.1212129
PAST SALE,March-28-2024,Single Family Residential,818 S Oak St,Arlington,VA,22204,640000,2,1.0,FOXCROFT HEIGHTS,918,4200,1938,,697,,Sold,,,https://www.redfin.com/VA/Arlington/818-S-Oak-St-22204/home/11263623,BRIGHT MLS,VAAR2039180,N,Y,38.8679977,-77.0709943
PAST SALE,December-18-2023,Single Family Residential,700 S Wakefield St,Arlington,VA,22204,760000,2,2.0,BARCROFT,1488,7500,1950,,511,,Sold,,,https://www.redfin.com/VA/Arlington/700-S-Wakefield-St-22204/home/11261110,BRIGHT MLS,VAAR2036556,N,Y,38.8608841,-77.1084515
PAST SALE,April-9-2024,Condo/Co-op,4600 S Four Mile Run Dr #808,Arlington,VA,22204,240000,1,1.0,THE CARLTON,828,,1965,,290,730,Sold,,,https://www.redfin.com/VA/Arlington/4600-S-Four-Mile-Run-Dr-22204/unit-808/home/11266435,BRIGHT MLS,VAAR2039964,N,Y,38.8548626,-77.1069563
PAST SALE,January-19-2024,Single Family Residential,512 Lombardy St N,Arlington,VA,22203,1045000,3,2.5,SPY HILL BLVD MANOR,2460,6744,1961,,425,,Sold,,,https://www.redfin.com/VA/Arlington/512-N-Lombardy-St-22203/home/11241458,BRIGHT MLS,VAAR2037574,N,Y,38.8698997,-77.1390295
PAST SALE,January-2-2024,Condo/Co-op,989 S Buchanan St #324,Arlington,VA,22204,365000,1,1.0,TRAFALGAR FLATS,728,,2019,,501,328,Sold,,,https://www.redfin.com/VA/Arlington/989-S-Buchanan-St-22204/unit-324/home/167753886,BRIGHT MLS,VAAR2036638,N,Y,38.856969,-77.1084525
PAST SALE,April-30-2024,Townhouse,2411 S Queen St,Arlington,VA,22202,1000000,4,3.5,FOREST HILLS,3219,2200,1978,,311,132,Sold,,,https://www.redfin.com/VA/Arlington/2411-S-Queen-St-22202/home/11277719,BRIGHT MLS,VAAR2039226,N,Y,38.850356,-77.072062
PAST SALE,May-22-2024,Single Family Residential,2422 Washington Blvd,Arlington,VA,22201,970000,5,3.0,CLARENDON,2000,5445,1935,,485,,Sold,,,https://www.redfin.com/VA/Arlington/2422-Washington-Blvd-22201/home/11255896,BRIGHT MLS,VAAR2039670,N,Y,38.8767282,-77.0861925
PAST SALE,June-4-2024,Condo/Co-op,206 N Trenton St Unit 206-1,Arlington,VA,22203,249000,1,1.0,ARLINGTON OAKS,699,,1940,,356,487,Sold,,,https://www.redfin.com/VA/Arlington/206-N-Trenton-St-22203/unit-206-1/home/11257986,BRIGHT MLS,VAAR2042044,N,Y,38.8705373,-77.1064115
PAST SALE,March-15-2024,Single Family Residential,1228 S Frederick St,Arlington,VA,22204,669000,3,1.5,VIRGINIA HEIGHTS ETC,1023,9665,1950,,654,,Sold,,,https://www.redfin.com/VA/Arlington/1228-S-Frederick-St-22204/home/11265559,BRIGHT MLS,VAAR2038096,N,Y,38.8488663,-77.1132904
PAST SALE,May-14-2024,Single Family Residential,860 N Madison St,Arlington,VA,22205,1949950,5,6.5,THE GROVE AT DOMINION HILLS,5032,6593,2025,,388,86,Sold,,,https://www.redfin.com/VA/Arlington/860-N-Madison-St-22205/home/187608968,BRIGHT MLS,VAAR2040240,N,Y,38.8741383,-77.1451689
PAST SALE,February-28-2024,Single Family Residential,204 N Cleveland St,Arlington,VA,22201,2750000,6,6.5,CLARENDON,5661,7250,2023,,486,,Sold,,,https://www.redfin.com/VA/Arlington/204-N-Cleveland-St-22201/home/11255557,BRIGHT MLS,VAAR2037358,N,Y,38.8771307,-77.0887104
PAST SALE,March-18-2024,Single Family Residential,842 S Monroe St,Arlington,VA,22204,1089000,5,4.5,ALCOVA HEIGHTS,2495,5000,1939,,436,,Sold,,,https://www.redfin.com/VA/Arlington/842-S-Monroe-St-22204/home/11261266,BRIGHT MLS,VAAR2037748,N,Y,38.8624506,-77.0949598
PAST SALE,February-16-2024,Townhouse,2232 S Randolph St #2,Arlington,VA,22204,550000,3,2.5,CONCORD MEWS,1418,,1976,,388,722,Sold,,,https://www.redfin.com/VA/Arlington/2232-S-Randolph-St-22204/unit-2/home/11271848,BRIGHT MLS,VAAR2038138,N,Y,38.8468195,-77.0935427
PAST SALE,May-30-2024,Condo/Co-op,1501 S George Mason Dr S #23,Arlington,VA,22204,228000,1,1.0,GEORGE MASON VIL,687,,1965,,332,592,Sold,,,https://www.redfin.com/VA/Arlington/1501-S-George-Mason-Dr-22204/unit-23/home/11264523,BRIGHT MLS,VAAR2040446,N,Y,38.8520549,-77.1036366
PAST SALE,March-15-2024,Single Family Residential,1021 S Dinwiddie St,Arlington,VA,22204,749900,4,3.5,COLUMBIA FOREST,2050,5451,1942,,366,,Sold,,,https://www.redfin.com/VA/Arlington/1021-S-Dinwiddie-St-22204/home/11265403,BRIGHT MLS,VAAR2038542,N,Y,38.8537026,-77.1108898
PAST SALE,December-22-2023,Single Family Residential,406 N Bryan St,Arlington,VA,22201,1300000,4,3.5,CLARENDON,2516,5000,1987,,517,,Sold,,,https://www.redfin.com/VA/Arlington/406-N-Bryan-St-22201/home/11255426,BRIGHT MLS,VAAR2035636,N,Y,38.8792978,-77.0887414
PAST SALE,January-18-2024,Single Family Residential,5881 9th Rd N,Arlington,VA,22205,1000000,5,3.5,DOMINION HILLS,2241,7520,1954,,446,,Sold,,,https://www.redfin.com/VA/Arlington/5881-9th-Rd-N-22205/home/11241145,BRIGHT MLS,VAAR2036702,N,Y,38.8768314,-77.1365953
PAST SALE,April-1-2024,Single Family Residential,877 Patrick Henry Dr,Arlington,VA,22205,875000,4,2.0,DOMINION HILLS,1192,6311,1954,,734,,Sold,,,https://www.redfin.com/VA/Arlington/877-Patrick-Henry-Dr-22205/home/11240951,BRIGHT MLS,VAAR2037126,N,Y,38.8746981,-77.1426035
PAST SALE,January-4-2024,Single Family Residential,115 N Wakefield St,Arlington,VA,22203,1175000,3,3.5,ARLINGTON FOREST,2880,7848,1941,,408,,Sold,,,https://www.redfin.com/VA/Arlington/115-N-Wakefield-St-22203/home/11243712,BRIGHT MLS,VAAR2037378,N,Y,38.8688849,-77.1133466
PAST SALE,May-24-2024,Condo/Co-op,1830 Columbia Pike #307,Arlington,VA,22204,255000,1,1.0,LANCASTER,770,,1964,,331,520,Sold,,,https://www.redfin.com/VA/Arlington/1830-Columbia-Pike-22204/unit-307/home/11272687,BRIGHT MLS,VAAR2039814,N,Y,38.8647549,-77.075961
PAST SALE,February-5-2024,Condo/Co-op,4141 N Henderson Rd #604,Arlington,VA,22203,350000,1,1.0,HYDE PARK,851,,1973,,411,733,Sold,,,https://www.redfin.com/VA/Arlington/4141-N-Henderson-Rd-22203/unit-604/home/11257296,BRIGHT MLS,VAAR2037150,N,Y,38.8758024,-77.1094008
PAST SALE,January-31-2024,Condo/Co-op,1509 S George Mason Dr #23,Arlington,VA,22204,235000,1,1.0,GEORGE MASON VIL,687,,1965,,342,540,Sold,,,https://www.redfin.com/VA/Arlington/1509-S-George-Mason-Dr-22204/unit-23/home/11264502,BRIGHT MLS,VAAR2036218,N,Y,38.85204,-77.104145
