SALE TYPE,SOLD DATE,PROPERTY TYPE,ADDRESS,CITY,STATE OR PROVINCE,ZIP OR POSTAL CODE,PRICE,BEDS,BATHS,LOCATION,SQUARE FEET,LOT SIZE,YEAR BUILT,DAYS ON MARKET,$/SQUARE FEET,HOA/MONTH,STATUS,NEXT OPEN HOUSE START TIME,NEXT OPEN HOUSE END TIME,URL (SEE https://www.redfin.com/buy-a-home/comparative-market-analysis FOR INFO ON PRICING),SOURCE,MLS#,FAVORITE,INTERESTED,LATITUDE,LONGITUDE
"In accordance with local MLS rules, some MLS listings are not included in the download"
PAST SALE,,Townhouse,2005 N Buchanan Ct,Arlington,VA,22207,832000,2,3.0,,2444,1916,1996,,340,,,,,https://www.redfin.com/VA/Arlington/2005-N-Buchanan-Ct-22207/home/11234735,,,N,Y,38.8951885,-77.124434
PAST SALE,April-10-2024,Condo/Co-op,1024 N Utah St #223,Arlington,VA,22201,405000,1,1.0,WESTVIEW AT BALLSTON METRO,698,,2005,,580,522,Sold,,,https://www.redfin.com/VA/Arlington/1024-N-Utah-St-22201/unit-223/home/11280316,BRIGHT MLS,VAAR2041176,N,Y,38.8828413,-77.1140883
PAST SALE,February-7-2024,Condo/Co-op,1001 N Randolph St #804,Arlington,VA,22201,390000,1,1.0,Arlington,610,,2005,,639,556,Sold,,,https://www.redfin.com/VA/Arlington/1001-N-Randolph-St-22201/unit-804/home/11280464,BRIGHT MLS,VAAR2038086,N,Y,38.8829875,-77.1093249
PAST SALE,April-2-2024,Townhouse,716 N Oakland St N,Arlington,VA,22203,860000,3,2.0,KENMORE,1296,2120,1938,,664,,Sold,,,https://www.redfin.com/VA/Arlington/716-N-Oakland-St-22203/home/11257007,BRIGHT MLS,VAAR2040854,N,Y,38.8804312,-77.1041784
PAST SALE,March-11-2024,Condo/Co-op,816 S Arlington Mill Dr S Unit 5-103,Arlington,VA,22204,291000,2,1.0,PARK GLEN,748,,1947,,389,492,Sold,,,https://www.redfin.com/VA/Arlington/816-S-Arlington-Mill-Dr-22204/unit-5-103/home/11259290,BRIGHT MLS,VAAR2039508,N,Y,38.8590476,-77.1130519
PAST SALE,March-14-2024,Condo/Co-op,1029 N Stuart St N #216,Arlington,VA,22201,415951,1,1.0,SUMMERWALK I&II,714,,1985,,583,407,Sold,,,https://www.redfin.com/VA/Arlington/1029-N-Stuart-St-22201/unit-216/home/11244968,BRIGHT MLS,VAAR2039428,N,Y,38.8831127,-77.1115574
PAST SALE,April-3-2024,Condo/Co-op,24 S Old Glebe Rd Unit 105-C,Arlington,VA,22204,280000,2,1.0,ARBORS OF ARL,868,,1942,,323,438,Sold,,,https://www.redfin.com/VA/Arlington/24-S-Old-Glebe-Rd-22204/unit-105C/home/11262125,BRIGHT MLS,VAAR2041270,N,Y,38.8695489,-77.0987292
PAST SALE,March-22-2024,Single Family Residential,5721 7th St N,Arlington,VA,22205,1075000,4,3.0,BONAIR,2035,6000,1955,,528,,Sold,,,https://www.redfin.com/VA/Arlington/5721-7th-St-N-22205/home/11242875,BRIGHT MLS,VAAR2040140,N,Y,38.8732627,-77.1306069
PAST SALE,March-29-2024,Single Family Residential,5328 5th St S,Arlington,VA,22204,1050000,4,3.5,GLEN CARLIN,2475,6493,1963,,424,,Sold,,,https://www.redfin.com/VA/Arlington/5328-5th-St-S-22204/home/11258750,BRIGHT MLS,VAAR2040582,N,Y,38.8622447,-77.120949
PAST SALE,May-2-2024,Condo/Co-op,851 N Glebe Rd #103,Arlington,VA,22203,450000,1,1.0,CONTINENTAL,752,,2003,,598,419,Sold,,,https://www.redfin.com/VA/Arlington/851-N-Glebe-Rd-22203/unit-103/home/11279349,BRIGHT MLS,VAAR2041034,N,Y,38.8812488,-77.1145593
PAST SALE,February-29-2024,Townhouse,5701 11th St N #5,Arlington,VA,22205,985000,3,3.5,WESTOVER,2223,1226,2019,,443,120,Sold,,,https://www.redfin.com/VA/Arlington/5701-11th-St-N-22205/unit-5/home/114033504,BRIGHT MLS,VAAR2038664,N,Y,38.8812485,-77.133798
PAST SALE,February-26-2024,Single Family Residential,3918 8th St S,Arlington,VA,22204,1219000,4,3.5,ALCOVA HEIGHTS,3800,8911,1925,,321,,Sold,,,https://www.redfin.com/VA/Arlington/3918-8th-St-S-22204/home/11261283,BRIGHT MLS,VAAR2036090,N,Y,38.8625371,-77.0993207
PAST SALE,February-9-2024,Condo/Co-op,1220 N Fillmore St #605,Arlington,VA,22201,492000,1,1.0,STATION SQUARE,669,,2006,,735,423,Sold,,,https://www.redfin.com/VA/Arlington/1220-N-Fillmore-St-22201/unit-605/home/12041602,BRIGHT MLS,VAAR2036600,N,Y,38.8871875,-77.0932213
PAST SALE,February-1-2024,Condo/Co-op,3625 10th St N #303,Arlington,VA,22201,745000,2,2.5,MONROE,1350,,2006,,552,908,Sold,,,https://www.redfin.com/VA/Arlington/3625-10th-St-N-22201/unit-303/home/12040806,BRIGHT MLS,VAAR2031272,N,Y,38.8841794,-77.1041536
PAST SALE,,Single Family Residential,1225 N Lincoln St,Arlington,VA,22201,1575000,5,4.0,,2490,5000,1977,,633,,,,,https://www.redfin.com/VA/Arlington/1225-N-Lincoln-St-22201/home/11248565,,,N,Y,38.8872229,-77.1035467
PAST SALE,,Condo/Co-op,1020 N Stafford St #410,Arlington,VA,22201,390000,1,1.0,,656,,1984,,595,,,,,https://www.redfin.com/VA/Arlington/1020-N-Stafford-St-22201/unit-410/home/11244934,,,N,Y,38.8829914,-77.110828
PAST SALE,December-9-2023,Single Family Residential,4534 19th St N,Arlington,VA,22207,1600000,4,3.5,WILLET HEIGHTS,3120,9477,1937,,513,,Sold,,,https://www.redfin.com/VA/Arlington/4534-19th-St-N-22207/home/11235236,BRIGHT MLS,VAAR2038458,N,Y,38.8933178,-77.1182013
PAST SALE,February-23-2024,Single Family Residential,805 N Highland St,Arlington,VA,22201,2655483,3,2.5,CLARENDON,1360,6250,1950,,1953,,Sold,,,https://www.redfin.com/VA/Arlington/805-N-Highland-St-22201/home/11255230,BRIGHT MLS,VAAR2041864,N,Y,38.8823403,-77.0943115
PAST SALE,April-11-2024,Townhouse,1011 N Kensington St,Arlington,VA,22205,1085000,4,4.0,WESTOVER,1900,1360,2015,,571,175,Sold,,,https://www.redfin.com/VA/Arlington/1011-N-Kensington-St-22205/home/101388423,BRIGHT MLS,VAAR2042352,N,Y,38.8804009,-77.1327178
PAST SALE,May-16-2024,Single Family Residential,504 N Kenmore St,Arlington,VA,22201,2340000,4,4.5,ASHTON HEIGHTS,3733,6532,2024,,627,,Sold,,,https://www.redfin.com/VA/Arlington/504-N-Kenmore-St-22201/home/11256466,BRIGHT MLS,VAAR2043794,N,Y,38.8784587,-77.0991677
PAST SALE,,Single Family Residential,5726 20th St N,Arlington,VA,22205,1158000,3,3.5,,1964,7078,1941,,590,,,,,https://www.redfin.com/VA/Arlington/5726-20th-St-N-22205/home/11238722,,,N,Y,38.8893932,-77.1403798
PAST SALE,April-23-2024,Single Family Residential,118 N Wakefield St,Arlington,VA,22203,875000,3,2.0,ARLINGTON FOREST,1364,6259,1941,,641,,Sold,,,https://www.redfin.com/VA/Arlington/118-N-Wakefield-St-22203/home/11243741,BRIGHT MLS,VAAR2042204,N,Y,38.8691029,-77.1137151
PAST SALE,April-5-2024,Single Family Residential,1101 N Potomac St,Arlington,VA,22205,1505000,3,2.5,MADISON MANOR,1452,6263,1947,,1037,,Sold,,,https://www.redfin.com/VA/Arlington/1101-N-Potomac-St-22205/home/11240347,BRIGHT MLS,VAAR2042322,N,Y,38.8795979,-77.1477532
PAST SALE,May-1-2024,Single Family Residential,606 N Jefferson St,Arlington,VA,22205,815000,2,2.0,BONAIR,1075,7503,1939,,758,,Sold,,,https://www.redfin.com/VA/Arlington/606-N-Jefferson-St-22205/home/11242734,BRIGHT MLS,VAAR2043250,N,Y,38.8734833,-77.1272626
PAST SALE,May-1-2024,Single Family Residential,506 N Norwood St,Arlington,VA,22203,1600000,4,4.0,ASHTON HEIGHTS,3229,5450,1940,,496,,Sold,,,https://www.redfin.com/VA/Arlington/506-N-Norwood-St-22203/home/11256408,BRIGHT MLS,VAAR2043346,N,Y,38.8774614,-77.1031421
PAST SALE,March-29-2024,Condo/Co-op,4141 N Henderson Rd #611,Arlington,VA,22203,595000,2,2.0,HYDE PARK,1702,,1973,,350,1460,Sold,,,https://www.redfin.com/VA/Arlington/4141-N-Henderson-Rd-22203/unit-611/home/11257303,BRIGHT MLS,VAAR2040738,N,Y,38.8758024,-77.1094008
PAST SALE,,Single Family Residential,125 S Pershing Dr,Arlington,VA,22204,925000,3,2.5,,1494,6166,1950,,619,,,,,https://www.redfin.com/VA/Arlington/125-S-Pershing-Dr-22204/home/11260519,,,N,Y,38.8658976,-77.1099751
PAST SALE,March-22-2024,Single Family Residential,1453 N Lancaster St,Arlington,VA,22205,780000,2,2.0,WESTOVER,1042,5100,1938,,749,,Sold,,,https://www.redfin.com/VA/Arlington/1453-N-Lancaster-St-22205/home/11238496,BRIGHT MLS,VAAR2039616,N,Y,38.8836819,-77.1419326
PAST SALE,,Condo/Co-op,750 S Dickerson St #401,Arlington,VA,22204,281586,3,2.0,,1516,,1961,,186,,,,,https://www.redfin.com/VA/Arlington/750-S-Dickerson-St-22204/unit-401/home/11259225,,,N,Y,38.8591853,-77.1152479
PAST SALE,April-19-2024,Single Family Residential,697 N Emerson St,Arlington,VA,22203,1875800,5,4.5,BONAIR,1317,6168,2024,,1424,,Sold,,,https://www.redfin.com/VA/Arlington/697-N-Emerson-St-22203/home/11242490,BRIGHT MLS,VAAR2042844,N,Y,38.8757666,-77.1212764
PAST SALE,,Single Family Residential,3161 20th St N,Arlington,VA,22201,1862500,5,3.5,,2481,8225,1937,,751,,,,,https://www.redfin.com/VA/Arlington/3161-20th-St-N-22201/home/11247478,,,N,Y,38.8940801,-77.096864
PAST SALE,,Single Family Residential,1404 N Hudson St,Arlington,VA,22201,1600000,3,2.5,,2229,7475,1937,,718,,,,,https://www.redfin.com/VA/Arlington/1404-N-Hudson-St-22201/home/11248311,,,N,Y,38.8883887,-77.0985793
PAST SALE,,Single Family Residential,1706 N Nelson St,Arlington,VA,22207,2369172,,1.0,,832,6348,1926,,2848,,,,,https://www.redfin.com/VA/Arlington/1706-N-Nelson-St-22207/home/11234003,,,N,Y,38.8925079,-77.10537
PAST SALE,April-26-2024,Townhouse,13 S Montague St,Arlington,VA,22204,745000,3,3.0,MANCHESTER SQUARE,2319,,1984,,321,620,Sold,,,https://www.redfin.com/VA/Arlington/13-S-Montague-St-22204/home/11258569,BRIGHT MLS,VAAR2043198,N,Y,38.8653705,-77.13618
PAST SALE,April-12-2024,Townhouse,1135 N Taylor St,Arlington,VA,22201,1002927,3,3.5,OLDE BALLSTOWNE,1927,,1984,,520,375,Sold,,,https://www.redfin.com/VA/Arlington/1135-N-Taylor-St-22201/home/11244778,BRIGHT MLS,VAAR2041360,N,Y,38.8845824,-77.1127566
PAST SALE,February-29-2024,Single Family Residential,3501 17th St N,Arlington,VA,22207,2550000,5,5.0,CHERRYDALE,4769,6926,2024,,535,,Sold,,,https://www.redfin.com/VA/Arlington/3501-17th-St-N-22207/home/11279974,BRIGHT MLS,VAAR2040726,N,Y,38.892231,-77.1034567
PAST SALE,,Single Family Residential,816 S Oakland St,Arlington,VA,22204,1100000,3,2.5,,2032,12433,1996,,541,,,,,https://www.redfin.com/VA/Arlington/816-S-Oakland-St-22204/home/11261318,,,N,Y,38.8626156,-77.0970616
PAST SALE,,Single Family Residential,606 S Woodstock St,Arlington,VA,22204,899000,,1.5,,1176,6000,1958,,764,,,,,https://www.redfin.com/VA/Arlington/606-S-Woodstock-St-22204/home/11260403,,,N,Y,38.8619418,-77.1130006
PAST SALE,May-2-2024,Condo/Co-op,110 N George Mason Dr Unit 110-4,Arlington,VA,22203,180000,1,1.0,ARLINGTON OAKS,651,,1940,,276,487,Sold,,,https://www.redfin.com/VA/Arlington/110-N-George-Mason-Dr-22203/unit-110-4/home/11257852,BRIGHT MLS,VAAR2042684,N,Y,38.8699426,-77.1074219
PAST SALE,April-12-2024,Single Family Residential,1808 N Adams St,Arlington,VA,22201,1351100,4,2.0,LYON VILLAGE,1707,8250,1925,,792,,Sold,,,https://www.redfin.com/VA/Arlington/1808-N-Adams-St-22201/home/11247628,BRIGHT MLS,VAAR2041114,N,Y,38.8944707,-77.0888914
PAST SALE,January-15-2024,Townhouse,812 N Wakefield St,Arlington,VA,22203,1399000,3,3.5,BALLSTON PARK,2784,963,2013,,503,140,Sold,,,https://www.redfin.com/VA/Arlington/812-N-Wakefield-St-22203/home/40630095,BRIGHT MLS,VAAR2039052,N,Y,38.8799404,-77.1165353
PAST SALE,April-2-2024,Single Family Residential,907 N Highland St,Arlington,VA,22201,1150000,4,2.0,CLARENDON,1650,6250,1920,,697,,Sold,,,https://www.redfin.com/VA/Arlington/907-N-Highland-St-22201/home/11254951,BRIGHT MLS,VAAR2040924,N,Y,38.8831833,-77.094352
PAST SALE,December-15-2023,Vacant Land,701 N Greenbrier St,Arlington,VA,22205,850000,,,BONAIR,,6600,,,,,Sold,,,https://www.redfin.com/VA/Arlington/701-N-Greenbrier-St-22205/home/11242538,BRIGHT MLS,VAAR2037864,N,Y,38.8756859,-77.1244592
PAST SALE,,Single Family Residential,425 N Norwood St,Arlington,VA,22203,1060000,3,3.0,,1804,6961,1938,,588,,,,,https://www.redfin.com/VA/Arlington/425-N-Norwood-St-22203/home/11256626,,,N,Y,38.877004,-77.1025257
PAST SALE,December-22-2023,Single Family Residential,811 N Harrison St,Arlington,VA,22205,1975000,5,4.5,BONAIR,5026,6900,2023,,393,,Sold,,,https://www.redfin.com/VA/Arlington/811-N-Harrison-St-22205/home/11242567,BRIGHT MLS,VAAR2039156,N,Y,38.8760688,-77.125528
PAST SALE,,Multi-Family (2-4 Unit),706 N Cleveland St,Arlington,VA,22201,1400000,5,3.0,,2112,8602,1968,,663,,,,,https://www.redfin.com/VA/Arlington/706-N-Cleveland-St-22201/home/11255132,,,N,Y,38.8811108,-77.0888301
PAST SALE,May-10-2024,Single Family Residential,3200 Olds Dr,Falls Church,VA,22041,1000000,4,3.0,CONGRESSIONAL ACRES,2098,15091,1962,,477,,Sold,,,https://www.redfin.com/VA/Falls-Church/3200-Olds-Dr-22041/home/9568394,BRIGHT MLS,VAFX2172860,N,Y,38.8614358,-77.1329012
PAST SALE,June-3-2024,Condo/Co-op,3101 S Manchester St #808,Falls Church,VA,22044,195000,1,1.0,WOODLAKE TOWERS CONDO,785,,1972,,248,581,Sold,,,https://www.redfin.com/VA/Falls-Church/3101-S-Manchester-St-22044/unit-808/home/9570547,BRIGHT MLS,VAFX2181268,N,Y,38.8628702,-77.1347498
PAST SALE,December-29-2023,Single Family Residential,4140 6th St S,Arlington,VA,22204,1825500,5,4.5,BARCROFT,4113,6925,2023,,444,,Sold,,,https://www.redfin.com/VA/Arlington/4140-6th-St-S-22204/home/11261007,BRIGHT MLS,VAAR2029846,N,Y,38.8634519,-77.1046256
PAST SALE,,Condo/Co-op,1045 N Utah St Unit 2-604,Arlington,VA,22201,385000,1,1.0,,572,,1994,,673,,,,,https://www.redfin.com/VA/Arlington/1045-N-Utah-St-22201/unit-2-604/home/11244598,,,N,Y,38.8832871,-77.1135655
PAST SALE,April-30-2024,Single Family Residential,1301 N Utah St,Arlington,VA,22201,1125000,4,1.0,BALLSTON,1984,9525,1925,,567,,Sold,,,https://www.redfin.com/VA/Arlington/1301-N-Utah-St-22201/home/11244045,BRIGHT MLS,VAAR2043200,N,Y,38.8874123,-77.1140858
PAST SALE,,Condo/Co-op,1024 N Utah St #321,Arlington,VA,22201,385000,1,1.0,,683,,2005,,564,,,,,https://www.redfin.com/VA/Arlington/1024-N-Utah-St-22201/unit-321/home/11280302,,,N,Y,38.8828413,-77.1140883
PAST SALE,,Condo/Co-op,900 N Taylor St #1729,Arlington,VA,22203,155000,1,1.0,,775,,1992,,200,,,,,https://www.redfin.com/VA/Arlington/900-N-Taylor-St-22203/unit-1729/home/11246682,,,N,Y,38.8812752,-77.1130095
PAST SALE,March-8-2024,Condo/Co-op,900 N Taylor St Unit 1505 & 1507,Arlington,VA,22203,440000,2,2.0,JEFFERSON RES,1423,,1992,,309,552,Sold,,,https://www.redfin.com/VA/Arlington/900-N-Taylor-St-22203/unit-1507/home/11246627,BRIGHT MLS,VAAR2040310,N,Y,38.8812752,-77.1130095
PAST SALE,,Townhouse,3408 11th St S,Arlington,VA,22204,999999,4,4.5,,2511,1393,2015,,398,,,,,https://www.redfin.com/VA/Arlington/3408-11th-St-S-22204/home/92895336,,,N,Y,38.86013,-77.092223
PAST SALE,January-1-2024,Condo/Co-op,3830 9th St N Unit 701W,Arlington,VA,22203,725000,3,2.0,LEXINGTON SQUARE,1246,,2002,,582,607,Sold,,,https://www.redfin.com/VA/Arlington/3830-9th-St-N-22203/unit-701W/home/11278755,BRIGHT MLS,VAAR2036736,N,Y,38.8809961,-77.1060107
PAST SALE,,Townhouse,1110 N Stafford St Unit A,Arlington,VA,22201,1305000,3,3.5,,2002,1330,1996,,652,,,,,https://www.redfin.com/VA/Arlington/1110-N-Stafford-St-22201/unit-A/home/11244883,,,N,Y,38.8843785,-77.1110149
PAST SALE,February-2-2024,Single Family Residential,1021 Stafford St N,Arlington,VA,22201,1075000,2,1.0,BALLSTON,,,1930,,,,Sold,,,https://www.redfin.com/VA/Arlington/1021-N-Stafford-St-22201/home/11245091,BRIGHT MLS,VAAR2039476,N,Y,38.8832346,-77.1102449
PAST SALE,March-12-2024,Condo/Co-op,900 N Taylor St #1129,Arlington,VA,22203,95500,1,1.0,JEFFERSON RES,775,,1992,,123,295,Sold,,,https://www.redfin.com/VA/Arlington/900-N-Taylor-St-22203/unit-1129/home/11246582,BRIGHT MLS,VAAR2039380,N,Y,38.8812752,-77.1130095
PAST SALE,,Single Family Residential,1609 N Jackson St,Arlington,VA,22201,1700000,5,4.0,,3200,6575,1939,,531,,,,,https://www.redfin.com/VA/Arlington/1609-N-Jackson-St-22201/home/11247940,,,N,Y,38.890599519332596,-77.09948353809898
PAST SALE,,Condo/Co-op,888 N Quincy St #2003,Arlington,VA,22203,535000,1,1.0,,699,,2008,,765,,,,,https://www.redfin.com/VA/Arlington/888-N-Quincy-St-22203/unit-2003/home/16898218,,,N,Y,38.8808474,-77.1079204
PAST SALE,,Single Family Residential,1706 N Jefferson St,Arlington,VA,22205,1750000,4,3.5,,3043,10000,1951,,575,,,,,https://www.redfin.com/VA/Arlington/1706-N-Jefferson-St-22205/home/11236925,,,N,Y,38.8877457,-77.1363339
PAST SALE,,Condo/Co-op,900 N Taylor St #908,Arlington,VA,22203,84000,1,1.0,,634,,1992,,132,,,,,https://www.redfin.com/VA/Arlington/900-N-Taylor-St-22203/unit-908/home/11246528,,,N,Y,38.8812752,-77.1130095
PAST SALE,January-31-2024,Townhouse,2805 11th St N,Arlington,VA,22201,1115000,3,2.5,CLARENDON CENTER,1902,720,2002,,586,140,Sold,,,https://www.redfin.com/VA/Arlington/2805-11th-St-N-22201/home/11278873,BRIGHT MLS,VAAR2040148,N,Y,38.8867856,-77.0919978
PAST SALE,May-1-2024,Condo/Co-op,1021 N Garfield St #130,Arlington,VA,22201,530000,1,1.0,CLARENDON 1021,873,,2005,,607,542,Sold,,,https://www.redfin.com/VA/Arlington/1021-N-Garfield-St-22201/unit-130/home/11281143,BRIGHT MLS,VAAR2040272,N,Y,38.8855092,-77.0933367
PAST SALE,May-10-2024,Townhouse,1047 Edgewood St,Arlington,VA,22201,1626106,3,3.5,CLARENDON,2064,1260,2024,,788,75,Sold,,,https://www.redfin.com/VA/Arlington/1047-N-Edgewood-St-22201/home/11254920,BRIGHT MLS,VAAR2038272,N,Y,38.8862205,-77.0917227
PAST SALE,April-15-2024,Single Family Residential,6244 23rd St N,Arlington,VA,22205,1015000,4,2.0,OVER LEE KNOLLS,1482,13024,1940,,685,,Sold,,,https://www.redfin.com/VA/Arlington/6244-23rd-St-N-22205/home/11238861,BRIGHT MLS,VAAR2040094,N,Y,38.8908894,-77.1519776
PAST SALE,May-10-2024,Townhouse,2750 N 11th,Arlington,VA,22201,1585000,3,3.5,CLARENDON,2064,1035,2024,,768,75,Sold,,,https://www.redfin.com/VA/Arlington/2750-11th-St-N-22201/home/188753651,BRIGHT MLS,VAAR2038250,N,Y,38.8863929,-77.0909768
PAST SALE,January-30-2024,Condo/Co-op,3625 10th St N #507,Arlington,VA,22201,755000,3,2.0,MONROE,1119,,2006,,675,850,Sold,,,https://www.redfin.com/VA/Arlington/3625-10th-St-N-22201/unit-507/home/12168509,BRIGHT MLS,VAAR2038478,N,Y,38.8841794,-77.1041536
PAST SALE,April-2-2024,Condo/Co-op,1021 N Garfield St #513,Arlington,VA,22201,540400,1,1.0,CLARENDON 1021,839,,2005,,644,466,Sold,,,https://www.redfin.com/VA/Arlington/1021-N-Garfield-St-22201/unit-513/home/11281317,BRIGHT MLS,VAAR2040642,N,Y,38.8855092,-77.0933367
PAST SALE,February-28-2024,Condo/Co-op,1001 N Vermont St #409,Arlington,VA,22201,415000,1,1.0,WESTVIEW AT BALLSTON METRO,682,,2005,,609,537,Sold,,,https://www.redfin.com/VA/Arlington/1001-N-Vermont-St-22201/unit-409/home/11280193,BRIGHT MLS,VAAR2039540,N,Y,38.8832438,-77.1146298
PAST SALE,December-20-2023,Single Family Residential,148 N Park Dr N,Arlington,VA,22203,975000,4,2.5,ARLINGTON FOREST,1824,6825,1941,,535,,Sold,,,https://www.redfin.com/VA/Arlington/148-N-Park-Dr-22203/home/11243783,BRIGHT MLS,VAAR2038264,N,Y,38.8695338,-77.1155373
PAST SALE,May-6-2024,Single Family Residential,2509 N Quantico St,Arlington,VA,22207,1250000,3,2.0,Arlington,1834,5000,1941,,682,,Sold,,,https://www.redfin.com/VA/Arlington/2509-N-Quantico-St-22207/home/11225968,BRIGHT MLS,VAAR2040230,N,Y,38.8943294,-77.1537168
PAST SALE,February-29-2024,Condo/Co-op,1045 N Utah St Unit 2-311,Arlington,VA,22201,410000,1,1.0,WINDSOR PLAZA,677,,1994,,606,580,Sold,,,https://www.redfin.com/VA/Arlington/1045-N-Utah-St-22201/unit-2-311/home/11244563,BRIGHT MLS,VAAR2039394,N,Y,38.8832871,-77.1135655
PAST SALE,December-20-2023,Single Family Residential,913 N Larrimore St,Arlington,VA,22205,1500000,5,3.5,DOMINION HILLS,2600,6250,1946,,577,,Sold,,,https://www.redfin.com/VA/Arlington/913-N-Larrimore-St-22205/home/11241188,BRIGHT MLS,VAAR2031950,N,Y,38.8761641,-77.1371503
PAST SALE,April-26-2024,Condo/Co-op,5010 7th Rd S #202,Arlington,VA,22204,315000,1,1.0,PARK SPRING,835,,1969,,377,477,Sold,,,https://www.redfin.com/VA/Arlington/5010-7th-Rd-S-22204/unit-202/home/11259466,BRIGHT MLS,VAAR2040406,N,Y,38.8594754,-77.1166665
PAST SALE,March-22-2024,Single Family Residential,5013 Washington Blvd,Arlington,VA,22205,1400000,4,4.5,WAYCROFT,2079,3811,2004,,673,,Sold,,,https://www.redfin.com/VA/Arlington/5013-Washington-Blvd-22205/home/11278982,BRIGHT MLS,VAAR2040354,N,Y,38.885342,-77.124003
PAST SALE,April-30-2024,Single Family Residential,6037 25th St N,Arlington,VA,22207,875000,6,4.5,NORWOOD,1290,7362,1956,,678,,Sold,,,https://www.redfin.com/VA/Arlington/6037-25th-St-N-22207/home/11225857,BRIGHT MLS,VAAR2040896,N,Y,38.8946969,-77.1485388
PAST SALE,February-16-2024,Condo/Co-op,851 N Glebe Rd #302,Arlington,VA,22203,450000,1,1.0,BALLSTON,752,,2003,,598,419,Sold,,,https://www.redfin.com/VA/Arlington/851-N-Glebe-Rd-22203/unit-302/home/11279331,BRIGHT MLS,VAAR2039360,N,Y,38.8812488,-77.1145593
PAST SALE,April-5-2024,Condo/Co-op,228 N Thomas St Unit 228-3,Arlington,VA,22203,245000,1,1.0,ARLINGTON OAKS,666,,1940,,368,487,Sold,,,https://www.redfin.com/VA/Arlington/228-N-Thomas-St-22203/unit-228-3/home/11258047,BRIGHT MLS,VAAR2040600,N,Y,38.8714739,-77.1056146
PAST SALE,May-15-2024,Single Family Residential,1423 N Highland St,Arlington,VA,22201,1995000,4,3.5,LYON VILLAGE,3156,5550,1936,,632,,Sold,,,https://www.redfin.com/VA/Arlington/1423-N-Highland-St-22201/home/11248202,BRIGHT MLS,VAAR2041904,N,Y,38.8898971,-77.0951261
PAST SALE,March-21-2024,Townhouse,1106 Vermont,Arlington,VA,22201,1008700,3,3.0,BALLSTON AREA TOWNH,2160,1220,1984,,467,150,Sold,,,https://www.redfin.com/VA/Arlington/1106-N-Vermont-St-22201/home/11244198,BRIGHT MLS,VAAR2039792,N,Y,38.8839568,-77.1151784
PAST SALE,March-27-2024,Single Family Residential,4305 Washington Blvd,Arlington,VA,22201,825000,3,2.0,BALLSTON,2000,4238,1952,,413,,Sold,,,https://www.redfin.com/VA/Arlington/4305-Washington-Blvd-22201/home/11244075,BRIGHT MLS,VAAR2040616,N,Y,38.8857596,-77.1134365
PAST SALE,May-31-2024,Condo/Co-op,1021 N Garfield St #417,Arlington,VA,22201,595000,1,1.0,CLARENDON 1021,873,,2005,,682,510,Sold,,,https://www.redfin.com/VA/Arlington/1021-N-Garfield-St-22201/unit-417/home/11281273,BRIGHT MLS,VAAR2042848,N,Y,38.8855092,-77.0933367
PAST SALE,May-17-2024,Single Family Residential,1064 N Montana St,Arlington,VA,22205,1545000,4,2.5,DOMINION HILLS,1894,5759,1945,,816,,Sold,,,https://www.redfin.com/VA/Arlington/1064-N-Montana-St-22205/home/11240612,BRIGHT MLS,VAAR2041082,N,Y,38.8803285,-77.1449886
PAST SALE,May-17-2024,Single Family Residential,3223 4th St N,Arlington,VA,22201,1527000,4,3.0,ASHTON HEIGHTS,2267,7115,1953,,674,,Sold,,,https://www.redfin.com/VA/Arlington/3223-4th-St-N-22201/home/11256789,BRIGHT MLS,VAAR2042486,N,Y,38.8772754,-77.0967443
PAST SALE,February-15-2024,Single Family Residential,107 N Greenbrier St,Arlington,VA,22203,900000,3,1.5,ARLINGTON FOREST,1432,6534,1941,,628,,Sold,,,https://www.redfin.com/VA/Arlington/107-N-Greenbrier-St-22203/home/11243592,BRIGHT MLS,VAAR2038652,N,Y,38.8685491,-77.1225614
PAST SALE,April-12-2024,Single Family Residential,5151 10th Rd N,Arlington,VA,22205,1475000,4,2.5,LACEY FOREST,2304,8265,1949,,640,,Sold,,,https://www.redfin.com/VA/Arlington/5151-10th-Rd-N-22205/home/11235830,BRIGHT MLS,VAAR2039634,N,Y,38.8822075,-77.1266736
PAST SALE,March-29-2024,Single Family Residential,1940 N Roosevelt Ave,Arlington,VA,22205,1875000,5,5.5,LINDSEY'S,3949,6009,2023,,475,,Sold,,,https://www.redfin.com/VA/Arlington/1940-N-Roosevelt-St-22205/home/189551137,BRIGHT MLS,VAAR2039666,N,Y,38.8871672,-77.1547608
PAST SALE,May-31-2024,Single Family Residential,4141 6th St S,Arlington,VA,22204,890000,3,1.5,BARCROFT,1925,7473,1950,,462,,Sold,,,https://www.redfin.com/VA/Arlington/4141-6th-St-S-22204/home/11260711,BRIGHT MLS,VAAR2041504,N,Y,38.8638701,-77.10482
PAST SALE,February-26-2024,Condo/Co-op,1050 N Stuart St #800,Arlington,VA,22201,679000,2,2.0,BALLSTON PARK,1076,,1995,,631,634,Sold,,,https://www.redfin.com/VA/Arlington/1050-N-Stuart-St-22201/unit-800/home/11244628,BRIGHT MLS,VAAR2038856,N,Y,38.8835336,-77.1123801
PAST SALE,May-22-2024,Townhouse,6707 Washington Blvd Unit D,Arlington,VA,22213,703555,2,1.5,LAUREL MEWS & WA COURT,1110,,1979,,634,445,Sold,,,https://www.redfin.com/VA/Arlington/6707-Washington-Blvd-22213/unit-D/home/11239132,BRIGHT MLS,VAAR2039888,N,Y,38.888224,-77.159146
PAST SALE,May-20-2024,Condo/Co-op,4501 Arlington Blvd #315,Arlington,VA,22203,235000,1,1.0,THE CHATHAM,533,,1965,,441,432,Sold,,,https://www.redfin.com/VA/Arlington/4501-Arlington-Blvd-22203/unit-315/home/11257656,BRIGHT MLS,VAAR2041392,N,Y,38.8692333,-77.1087161
PAST SALE,May-24-2024,Townhouse,1332 N Danville St,Arlington,VA,22201,1208000,3,2.5,CLARENDON CENTER,1612,720,2001,,749,142,Sold,,,https://www.redfin.com/VA/Arlington/1332-N-Danville-St-22201/home/11278923,BRIGHT MLS,VAAR2042578,N,Y,38.88819,-77.090843
PAST SALE,February-21-2024,Townhouse,1122 N Stuart St,Arlington,VA,22201,1535000,4,4.5,BALLSTON,2907,1215,2017,,528,192,Sold,,,https://www.redfin.com/VA/Arlington/1122-N-Stuart-St-22201/home/113861531,BRIGHT MLS,VAAR2039528,N,Y,38.8847421,-77.1123421
PAST SALE,May-2-2024,Condo/Co-op,1201 N Garfield St #405,Arlington,VA,22201,785000,2,2.0,STATION SQUARE,1006,,2006,,780,633,Sold,,,https://www.redfin.com/VA/Arlington/1201-N-Garfield-St-22201/unit-405/home/12041457,BRIGHT MLS,VAAR2041750,N,Y,38.8866753,-77.0934537
PAST SALE,March-1-2024,Townhouse,2620 Fairfax Dr,Arlington,VA,22201,1400000,4,3.5,VILLAGE AT COURTLANDS,2295,1373,1989,,610,50,Sold,,,https://www.redfin.com/VA/Arlington/2620-Fairfax-Dr-22201/home/11254766,BRIGHT MLS,VAAR2039222,N,Y,38.8882697,-77.0898121
PAST SALE,January-10-2024,Condo/Co-op,3515 Washington Blvd #217,Arlington,VA,22201,275000,1,1.0,WENTWORTH PLACE,850,,1960,,324,574,Sold,,,https://www.redfin.com/VA/Arlington/3515-Washington-Blvd-22201/unit-217/home/11248503,BRIGHT MLS,VAAR2038268,N,Y,38.8864178,-77.1047829
PAST SALE,April-9-2024,Condo/Co-op,1021 N Garfield St #818,Arlington,VA,22201,775000,2,2.0,CLARENDON,1104,,2005,,702,647,Sold,,,https://www.redfin.com/VA/Arlington/1021-N-Garfield-St-22201/unit-818/home/11281456,BRIGHT MLS,VAAR2041492,N,Y,38.8855092,-77.0933367
PAST SALE,May-3-2024,Townhouse,754 N Vermont St,Arlington,VA,22203,700000,2,2.0,BALLSTON MEWS I,1131,,1982,,619,440,Sold,,,https://www.redfin.com/VA/Arlington/754-N-Vermont-St-22203/home/11242236,BRIGHT MLS,VAAR2041582,N,Y,38.878804,-77.11496
PAST SALE,May-16-2024,Condo/Co-op,1127 Stuart St N #6,Arlington,VA,22201,411000,1,1.0,BALLSTON,604,,1960,,680,175,Sold,,,https://www.redfin.com/VA/Arlington/1127-N-Stuart-St-22201/unit-6/home/16898010,BRIGHT MLS,VAAR2042598,N,Y,38.8849803,-77.1118592
PAST SALE,May-3-2024,Condo/Co-op,1050 N Taylor St Unit 1-701,Arlington,VA,22201,549900,2,2.0,WINDSOR PLAZA,892,,1994,,616,734,Sold,,,https://www.redfin.com/VA/Arlington/1050-N-Taylor-St-22201/unit-1-701/home/11244515,BRIGHT MLS,VAAR2041868,N,Y,38.8833556,-77.1131323
PAST SALE,April-30-2024,Single Family Residential,2000 N Powhatan St,Arlington,VA,22205,1545000,3,3.0,OVER LEE KNOLLS,2464,8514,1947,,627,,Sold,,,https://www.redfin.com/VA/Arlington/2000-N-Powhatan-St-22205/home/11239743,BRIGHT MLS,VAAR2041788,N,Y,38.8882942,-77.1488556
PAST SALE,May-28-2024,Condo/Co-op,4374 N Pershing Dr #2,Arlington,VA,22203,282500,1,1.0,ARLINGTON OAKS,651,,1940,,434,518,Sold,,,https://www.redfin.com/VA/Arlington/4374-Pershing-DR-22203/unit-2/home/167195874,BRIGHT MLS,VAAR2041820,N,Y,38.87043,-77.10906
PAST SALE,May-10-2024,Townhouse,606-A N Tazewell St,Arlington,VA,22203,1127333,3,3.0,TOWNES OF BALLSTON,2059,903,1989,,548,272,Sold,,,https://www.redfin.com/VA/Arlington/606A-N-Tazewell-St-22203/home/146255967,BRIGHT MLS,VAAR2042072,N,Y,38.8776818,-77.1126898
PAST SALE,May-20-2024,Condo/Co-op,802 S Arlington Mill Dr #12301,Arlington,VA,22204,249900,1,1.0,PARK GLEN,539,,1947,,464,393,Sold,,,https://www.redfin.com/VA/Arlington/802-S-Arlington-Mill-Dr-22204/unit-12301/home/11259380,BRIGHT MLS,VAAR2042752,N,Y,38.8601272,-77.1145828
PAST SALE,March-6-2024,Townhouse,1936 N Dinwiddie St,Arlington,VA,22207,745000,3,2.0,HIGHVIEW PARK,1622,7500,1960,,459,,Sold,,,https://www.redfin.com/VA/Arlington/1936-N-Dinwiddie-St-22207/home/11236302,BRIGHT MLS,VAAR2039776,N,Y,38.8933988,-77.1275506
PAST SALE,May-23-2024,Single Family Residential,5508 23rd St N,Arlington,VA,22205,1829995,5,5.0,TUCKAHOE VILLAGE,3802,6000,1948,,481,,Sold,,,https://www.redfin.com/VA/Arlington/5508-23rd-St-N-22205/home/11238018,BRIGHT MLS,VAAR2042786,N,Y,38.8939104,-77.1386069
PAST SALE,May-31-2024,Single Family Residential,3904 7th St S,Arlington,VA,22204,976000,4,2.0,ALCOVA HEIGHTS,1795,8256,1939,,544,,Sold,,,https://www.redfin.com/VA/Arlington/3904-7th-St-S-22204/home/11261138,BRIGHT MLS,VAAR2043402,N,Y,38.8637519,-77.099051
PAST SALE,March-8-2024,Single Family Residential,1222 N Dinwiddie St,Arlington,VA,22205,2149000,6,6.5,WAYCROFT,5229,6250,2024,,411,,Sold,,,https://www.redfin.com/VA/Arlington/1222-N-Dinwiddie-St-22205/home/11235922,BRIGHT MLS,VAAR2039838,N,Y,38.8844093,-77.1231794
PAST SALE,April-1-2024,Townhouse,5746 10th Rd N,Arlington,VA,22205,1150000,4,4.0,ARLINGTON ROW,2480,1370,2018,,464,235,Sold,,,https://www.redfin.com/VA/Arlington/5746-10th-Rd-N-22205/home/148174291,BRIGHT MLS,VAAR2040418,N,Y,38.8802625,-77.1348043
PAST SALE,April-29-2024,Condo/Co-op,888 N Quincy St #512,Arlington,VA,22203,815000,2,2.0,BALLSTON,1254,,2008,,650,885,Sold,,,https://www.redfin.com/VA/Arlington/888-N-Quincy-St-22203/unit-512/home/16897960,BRIGHT MLS,VAAR2041624,N,Y,38.8808474,-77.1079204
PAST SALE,April-10-2024,Single Family Residential,895 N Kentucky St,Arlington,VA,22205,1970000,5,4.5,BROCKWOOD,4331,5600,2024,,455,,Sold,,,https://www.redfin.com/VA/Arlington/895-N-Kentucky-St-22205/home/11241866,BRIGHT MLS,VAAR2040060,N,Y,38.8773963,-77.1325161
PAST SALE,May-17-2024,Condo/Co-op,1021 N Garfield St #634,Arlington,VA,22201,505000,1,1.0,CLARENDON 1021,746,,2005,,677,466,Sold,,,https://www.redfin.com/VA/Arlington/1021-N-Garfield-St-22201/unit-634/home/11280026,BRIGHT MLS,VAAR2042078,N,Y,38.8855092,-77.0933367
PAST SALE,April-11-2024,Single Family Residential,5142 16th St N,Arlington,VA,22205,975000,3,3.0,WAYCROFT,2200,12120,1951,,443,,Sold,,,https://www.redfin.com/VA/Arlington/5142-16th-St-N-22205/home/11237038,BRIGHT MLS,VAAR2040130,N,Y,38.8875435,-77.1274488
PAST SALE,May-8-2024,Condo/Co-op,3830 9th St N Unit 904W,Arlington,VA,22203,560000,2,1.5,LEXINGTON SQUARE,865,,2001,,647,469,Sold,,,https://www.redfin.com/VA/Arlington/3830-9th-St-N-22203/unit-904W/home/11278772,BRIGHT MLS,VAAR2042690,N,Y,38.8809961,-77.1060107
PAST SALE,April-10-2024,Townhouse,2032 N Westmoreland St N,Arlington,VA,22213,1080000,3,2.5,18 WEST,2578,1170,2005,,419,270,Sold,,,https://www.redfin.com/VA/Arlington/2032-N-Westmoreland-St-22213/home/11279208,BRIGHT MLS,VAAR2039236,N,Y,38.8858139,-77.1620534
PAST SALE,April-18-2024,Condo/Co-op,1029 N Stuart St #717,Arlington,VA,22201,650000,2,2.0,SUMMERWALK I&II,1154,,1985,,563,596,Sold,,,https://www.redfin.com/VA/Arlington/1029-N-Stuart-St-22201/unit-717/home/11245055,BRIGHT MLS,VAAR2040692,N,Y,38.8831127,-77.1115574
PAST SALE,March-15-2024,Single Family Residential,1104 N Potomac St,Arlington,VA,22205,950000,3,2.0,MADISON MANOR,2016,6065,1947,,471,,Sold,,,https://www.redfin.com/VA/Arlington/1104-N-Potomac-St-22205/home/11240365,BRIGHT MLS,VAAR2040262,N,Y,38.8797509,-77.1483548
PAST SALE,May-31-2024,Single Family Residential,4716 8th Rd S,Arlington,VA,22204,1435000,5,3.5,BARCROFT,3219,6000,1998,,446,,Sold,,,https://www.redfin.com/VA/Arlington/4716-8th-Rd-S-22204/home/11261767,BRIGHT MLS,VAAR2040330,N,Y,38.8592282,-77.1093389
PAST SALE,December-27-2023,Condo/Co-op,6001 Arlington Blvd #819,Falls Church,VA,22044,183000,1,1.0,WOODLAKE TOWERS,785,,1970,,233,581,Sold,,,https://www.redfin.com/VA/Falls-Church/6001-Arlington-Blvd-22044/unit-819/home/9569091,BRIGHT MLS,VAFX2157200,N,Y,38.8651765,-77.1375577
PAST SALE,April-26-2024,Condo/Co-op,880 N Pollard St #723,Arlington,VA,22203,449900,1,1.0,BALLSTON 880,800,,2000,,562,533,Sold,,,https://www.redfin.com/VA/Arlington/880-N-Pollard-St-22203/unit-723/home/11280637,BRIGHT MLS,VAAR2041986,N,Y,38.8808777,-77.1069408
PAST SALE,February-29-2024,Single Family Residential,317 N Manchester St,Arlington,VA,22203,924000,4,3.0,SPY HILL BLVD MANOR,2291,6534,1956,,403,,Sold,,,https://www.redfin.com/VA/Arlington/317-N-Manchester-St-22203/home/11241262,BRIGHT MLS,VAAR2038812,N,Y,38.869103,-77.1326216
PAST SALE,March-11-2024,Condo/Co-op,1200 N Hartford St #504,Arlington,VA,22201,460000,1,1.0,LYON VILLAGE,650,,2003,,708,420,Sold,,,https://www.redfin.com/VA/Arlington/1200-N-Hartford-St-22201/unit-504/home/11279808,BRIGHT MLS,VAAR2040306,N,Y,38.8880714,-77.0959295
PAST SALE,April-18-2024,Single Family Residential,5403 4th St S,Arlington,VA,22204,830000,4,2.0,GLEN CARLIN,1992,6000,1961,,417,,Sold,,,https://www.redfin.com/VA/Arlington/5403-4th-St-S-22204/home/11258725,BRIGHT MLS,VAAR2041620,N,Y,38.8634189,-77.1208285
PAST SALE,February-20-2024,Single Family Residential,33 N Garfield St,Arlington,VA,22201,1220000,3,2.5,ASHTON HEIGHTS,1720,6232,1952,,709,,Sold,,,https://www.redfin.com/VA/Arlington/33-N-Garfield-St-22201/home/11255985,BRIGHT MLS,VAAR2039012,N,Y,38.8743373,-77.0912844
PAST SALE,April-2-2024,Condo/Co-op,1050 N Taylor St N Unit 1-702,Arlington,VA,22201,549900,2,2.0,WINDSOR PLAZA,850,,1994,,647,777,Sold,,,https://www.redfin.com/VA/Arlington/1050-N-Taylor-St-22201/unit-1-702/home/11244516,BRIGHT MLS,VAAR2040222,N,Y,38.8833556,-77.1131323
PAST SALE,,Single Family Residential,3108 6th St N,Arlington,VA,22201,1360000,4,2.0,,2095,11588,1920,,649,,,,,https://www.redfin.com/VA/Arlington/3108-6th-St-N-22201/home/11256509,,,N,Y,38.880061,-77.0960029
PAST SALE,May-21-2024,Condo/Co-op,1001 N Randolph St #318,Arlington,VA,22201,395000,1,1.0,EASTVIEW AT BALLSTON METRO,634,,2005,,623,556,Sold,,,https://www.redfin.com/VA/Arlington/1001-N-Randolph-St-22201/unit-318/home/11280386,BRIGHT MLS,VAAR2041972,N,Y,38.8829875,-77.1093249
PAST SALE,April-5-2024,Single Family Residential,2911 1st St N,Arlington,VA,22201,2200000,7,6.0,ASHTON HEIGHTS,5270,8276,2005,,417,,Sold,,,https://www.redfin.com/VA/Arlington/2911-1st-St-N-22201/home/11279989,BRIGHT MLS,VAAR2039590,N,Y,38.8752393,-77.0908235
PAST SALE,,Townhouse,2006 N Buchanan Ct,Arlington,VA,22207,915000,3,2.5,,2048,1697,1996,,447,,,,,https://www.redfin.com/VA/Arlington/2006-N-Buchanan-Ct-22207/home/11234742,,,N,Y,38.8948941,-77.1247639
PAST SALE,March-13-2024,Single Family Residential,5916 5th Rd N,Arlington,VA,22203,1000000,4,3.0,SPY HILL BLVD MANOR,2394,6629,1958,,418,,Sold,,,https://www.redfin.com/VA/Arlington/5916-5th-Rd-N-22203/home/11241300,BRIGHT MLS,VAAR2040092,N,Y,38.8715258,-77.135126
PAST SALE,December-8-2023,Single Family Residential,1941 N Emerson St,Arlington,VA,22207,1275000,4,3.5,HIGHVIEW PARK,3101,5600,1953,,411,,Sold,,,https://www.redfin.com/VA/Arlington/1941-N-Emerson-St-22207/home/11236435,BRIGHT MLS,VAAR2037238,N,Y,38.8930202,-77.1292836
PAST SALE,April-19-2024,Single Family Residential,700 S Florida St,Arlington,VA,22204,915000,5,2.5,COLUMBIA TERRACE,2352,7043,1961,,389,,Sold,,,https://www.redfin.com/VA/Arlington/700-S-Florida-St-22204/home/11260024,BRIGHT MLS,VAAR2040476,N,Y,38.8590606,-77.1192352
PAST SALE,December-12-2023,Single Family Residential,610 S Irving St,Arlington,VA,22204,850000,4,1.0,ARLINGTON HEIGHTS,1714,10432,1940,,496,,Sold,,,https://www.redfin.com/VA/Arlington/610-S-Irving-St-22204/home/11263020,BRIGHT MLS,VAAR2037890,N,Y,38.8669328,-77.0914041
PAST SALE,April-18-2024,Single Family Residential,3428 7th St S,Arlington,VA,22204,1005000,4,3.0,ALCOVA HEIGHTS,1856,6485,1945,,541,,Sold,,,https://www.redfin.com/VA/Arlington/3428-7th-St-S-22204/home/11261189,BRIGHT MLS,VAAR2040870,N,Y,38.8651412,-77.0942405
PAST SALE,March-19-2024,Single Family Residential,205 N Fillmore St,Arlington,VA,22201,1700000,4,3.0,CLARENDON,2853,5869,1930,,596,,Sold,,,https://www.redfin.com/VA/Arlington/205-N-Fillmore-St-22201/home/11255531,BRIGHT MLS,VAAR2040428,N,Y,38.8769404,-77.0906675
PAST SALE,March-22-2024,Townhouse,1007 N Kensington St,Arlington,VA,22205,1075000,4,4.5,WESTOVER,2225,1360,2015,,483,172,Sold,,,https://www.redfin.com/VA/Arlington/1007-N-Kensington-St-22205/home/85252797,BRIGHT MLS,VAAR2039326,N,Y,38.8802948,-77.1326813
PAST SALE,May-13-2024,Single Family Residential,2013 N Nottingham St,Arlington,VA,22205,1935000,5,4.5,PARKHURST,4482,5811,2006,,432,,Sold,,,https://www.redfin.com/VA/Arlington/2013-N-Nottingham-St-22205/home/12040657,BRIGHT MLS,VAAR2039450,N,Y,38.8893657,-77.1443374
PAST SALE,February-2-2024,Single Family Residential,1134 N Harrison St,Arlington,VA,22205,1253000,3,2.5,LACEY FOREST,2354,5895,1937,,532,,Sold,,,https://www.redfin.com/VA/Arlington/1134-N-Harrison-St-22205/home/11237448,BRIGHT MLS,VAAR2039306,N,Y,38.8833215,-77.129708
PAST SALE,March-29-2024,Condo/Co-op,888 N Quincy St N #704,Arlington,VA,22203,562500,1,1.0,RESIDENCES AT LIBERTY CENTER,788,,2008,,714,508,Sold,,,https://www.redfin.com/VA/Arlington/888-N-Quincy-St-22203/unit-704/home/16897944,BRIGHT MLS,VAAR2040802,N,Y,38.8808474,-77.1079204
PAST SALE,April-10-2024,Condo/Co-op,1050 N Stuart St N #815,Arlington,VA,22201,515000,1,1.0,BALLSTON PARK,744,,1995,,692,488,Sold,,,https://www.redfin.com/VA/Arlington/1050-N-Stuart-St-22201/unit-815/home/11244687,BRIGHT MLS,VAAR2041316,N,Y,38.8835336,-77.1123801
PAST SALE,May-29-2024,Condo/Co-op,1001 N Randolph St #422,Arlington,VA,22201,415000,1,1.0,BALLSTON,778,,2005,,533,556,Sold,,,https://www.redfin.com/VA/Arlington/1001-N-Randolph-St-22201/unit-422/home/11280407,BRIGHT MLS,VAAR2042628,N,Y,38.8829875,-77.1093249
PAST SALE,,Single Family Residential,2116 N Nottingham St,Arlington,VA,22205,1275000,3,2.0,,1649,8027,1939,,773,,,,,https://www.redfin.com/VA/Arlington/2116-N-Nottingham-St-22205/home/11239782,,,N,Y,38.8901533,-77.1450718
PAST SALE,April-19-2024,Townhouse,4007 Columbia Pike,Arlington,VA,22204,795000,3,2.5,ALCOVA HEIGHTS,1664,1223,2006,,478,60,Sold,,,https://www.redfin.com/VA/Arlington/4007-Columbia-Pike-22204/home/12039898,BRIGHT MLS,VAAR2041738,N,Y,38.8596139,-77.0990709
PAST SALE,February-12-2024,Condo/Co-op,888 N Quincy St #710,Arlington,VA,22203,615000,1,1.0,RESIDENCES AT LIBERTY CENTER,879,,2008,,700,554,Sold,,,https://www.redfin.com/VA/Arlington/888-N-Quincy-St-22203/unit-710/home/16897740,BRIGHT MLS,VAAR2038630,N,Y,38.8808474,-77.1079204
PAST SALE,April-26-2024,Single Family Residential,5016 6th St N,Arlington,VA,22203,891000,3,2.0,BRANDON VILLAGE,1696,8330,1950,,525,,Sold,,,https://www.redfin.com/VA/Arlington/5016-6th-St-N-22203/home/11243841,BRIGHT MLS,VAAR2041418,N,Y,38.8750199,-77.1190925
PAST SALE,April-3-2024,Townhouse,2002 N Westmoreland St,Arlington,VA,22213,1175000,3,2.5,18 WEST,2908,1586,2005,,404,270,Sold,,,https://www.redfin.com/VA/Arlington/2002-N-Westmoreland-St-22213/home/11279193,BRIGHT MLS,VAAR2040384,N,Y,38.8856415,-77.1617833
PAST SALE,February-16-2024,Condo/Co-op,1200 N Hartford St #601,Arlington,VA,22201,885000,3,2.0,CLARENDON,1300,,2003,,681,818,Sold,,,https://www.redfin.com/VA/Arlington/1200-N-Hartford-St-22201/unit-601/home/11279817,BRIGHT MLS,VAAR2038718,N,Y,38.8880714,-77.0959295
PAST SALE,January-31-2024,Condo/Co-op,4501 Arlington Blvd #730,Arlington,VA,22203,210000,1,1.0,THE CHATHAM,533,,1965,,394,443,Sold,,,https://www.redfin.com/VA/Arlington/4501-Arlington-Blvd-22203/unit-730/home/11257796,BRIGHT MLS,VAAR2038824,N,Y,38.8692333,-77.1087161
PAST SALE,May-15-2024,Condo/Co-op,4501 Arlington Blvd #818,Arlington,VA,22203,270000,1,1.0,THE CHATHAM,819,,1965,,330,737,Sold,,,https://www.redfin.com/VA/Arlington/4501-Arlington-Blvd-22203/unit-818/home/11257815,BRIGHT MLS,VAAR2042548,N,Y,38.8692333,-77.1087161
PAST SALE,April-30-2024,Condo/Co-op,1024 N Utah St #416,Arlington,VA,22201,400000,1,1.0,WESTVIEW AT BALLSTON METRO,596,,2005,,671,524,Sold,,,https://www.redfin.com/VA/Arlington/1024-N-Utah-St-22201/unit-416/home/11280258,BRIGHT MLS,VAAR2042080,N,Y,38.8828413,-77.1140883
PAST SALE,February-20-2024,Condo/Co-op,3800 Fairfax Dr #804,Arlington,VA,22203,717000,3,2.0,TOWER VILLA,1710,,1974,,419,1399,Sold,,,https://www.redfin.com/VA/Arlington/3800-Fairfax-Dr-22203/unit-804/home/11245489,BRIGHT MLS,VAAR2039460,N,Y,38.8821571,-77.1050976
PAST SALE,March-13-2024,Single Family Residential,1908 N Nelson St,Arlington,VA,22207,1715000,4,3.0,CHERRYDALE,3140,5870,1910,,546,,Sold,,,https://www.redfin.com/VA/Arlington/1908-N-Nelson-St-22207/home/11234074,BRIGHT MLS,VAAR2039860,N,Y,38.8943892,-77.1055247
PAST SALE,April-26-2024,Single Family Residential,1601 N Stafford St,Arlington,VA,22207,2325000,5,4.5,CHERRYDALE,5000,6882,2019,,465,,Sold,,,https://www.redfin.com/VA/Arlington/1601-N-Stafford-St-22207/home/11233804,BRIGHT MLS,VAAR2040402,N,Y,38.8905668,-77.1115485
PAST SALE,April-22-2024,Single Family Residential,878 N Kensington St N,Arlington,VA,22205,1288500,2,3.5,BROCKWOOD,2125,6645,1940,,606,,Sold,,,https://www.redfin.com/VA/Arlington/878-N-Kensington-St-22205/home/11241874,BRIGHT MLS,VAAR2040334,N,Y,38.8771941,-77.1315361
PAST SALE,April-18-2024,Single Family Residential,1706 N Taylor St,Arlington,VA,22207,1205000,4,2.5,WILLET HEIGHTS,1631,7639,1929,,739,,Sold,,,https://www.redfin.com/VA/Arlington/1706-N-Taylor-St-22207/home/11233573,BRIGHT MLS,VAAR2041090,N,Y,38.891909,-77.1133262
PAST SALE,February-21-2024,Single Family Residential,867 N Jacksonville St,Arlington,VA,22205,1275000,4,3.0,BROCKWOOD,2548,6028,1956,,500,,Sold,,,https://www.redfin.com/VA/Arlington/867-N-Jacksonville-St-22205/home/11241769,BRIGHT MLS,VAAR2039084,N,Y,38.8772884,-77.1299777
PAST SALE,February-9-2024,Townhouse,2217 N Tuckahoe St,Arlington,VA,22205,825000,3,3.5,SYCAMORE HEIGHTS,2278,1839,1976,,362,121,Sold,,,https://www.redfin.com/VA/Arlington/2217-N-Tuckahoe-St-22205/home/11239080,BRIGHT MLS,VAAR2039344,N,Y,38.8891731,-77.1574251
PAST SALE,April-11-2024,Single Family Residential,4400 4th St S,Arlington,VA,22204,880000,2,2.0,BARCROFT,1092,12566,1951,,806,,Sold,,,https://www.redfin.com/VA/Arlington/4400-4th-St-S-22204/home/11260675,BRIGHT MLS,VAAR2041066,N,Y,38.864076,-77.1077633
PAST SALE,May-21-2024,Single Family Residential,1833 N Quesada St N,Arlington,VA,22205,1800000,5,4.5,"FOSTORIA,HIGHLAND PARK",3911,6180,2015,,460,,Sold,,,https://www.redfin.com/VA/Arlington/1833-N-Quesada-St-22205/home/11239623,BRIGHT MLS,VAAR2041824,N,Y,38.88603,-77.1520168
PAST SALE,May-9-2024,Condo/Co-op,202 N George Mason Dr #2,Arlington,VA,22203,335000,2,1.0,ARLINGTON OAKS,831,,1940,,403,542,Sold,,,https://www.redfin.com/VA/Arlington/202-N-George-Mason-Dr-22203/unit-2/home/169697312,BRIGHT MLS,VAAR2042158,N,Y,38.8702698,-77.1075907
PAST SALE,March-15-2024,Single Family Residential,3700 7th St S,Arlington,VA,22204,1122000,3,2.5,ALCOVA HEIGHTS,1848,8147,1939,,607,,Sold,,,https://www.redfin.com/VA/Arlington/3700-7th-St-S-22204/home/11261176,BRIGHT MLS,VAAR2040328,N,Y,38.8644564,-77.0966796
PAST SALE,April-15-2024,Condo/Co-op,3800 Fairfax Dr #713,Arlington,VA,22203,650000,2,2.0,TOWER VILLA,1500,,1974,,433,1240,Sold,,,https://www.redfin.com/VA/Arlington/3800-Fairfax-Dr-22203/unit-713/home/11245469,BRIGHT MLS,VAAR2041056,N,Y,38.8821571,-77.1050976
PAST SALE,May-28-2024,Single Family Residential,212 S Irving St,Arlington,VA,22204,1385000,4,3.5,ARLINGTON HEIGHTS,2433,7210,1939,,569,,Sold,,,https://www.redfin.com/VA/Arlington/212-S-Irving-St-22204/home/11262352,BRIGHT MLS,VAAR2043604,N,Y,38.8691897,-77.0922546
PAST SALE,March-21-2024,Single Family Residential,6219 22nd St N,Arlington,VA,22205,1717219,5,3.5,OVER LEE KNOLLS,3590,8194,1947,,478,,Sold,,,https://www.redfin.com/VA/Arlington/6219-22nd-St-N-22205/home/11238883,BRIGHT MLS,VAAR2039568,N,Y,38.8895979,-77.150241
PAST SALE,May-9-2024,Single Family Residential,5401 11th St N,Arlington,VA,22205,1051000,3,1.5,LACEY FOREST,1668,7340,1950,,630,,Sold,,,https://www.redfin.com/VA/Arlington/5401-11th-St-N-22205/home/11237430,BRIGHT MLS,VAAR2042374,N,Y,38.8820718,-77.1293035
PAST SALE,March-15-2024,Single Family Residential,862 N Harrison St N,Arlington,VA,22205,1862500,5,3.5,SUMMIT & VEITCH,4507,10751,1940,,413,,Sold,,,https://www.redfin.com/VA/Arlington/862-N-Harrison-St-22205/home/11241933,BRIGHT MLS,VAAR2039828,N,Y,38.8776361,-77.1273971
PAST SALE,April-12-2024,Single Family Residential,5130 9th St N,Arlington,VA,22205,1500000,6,4.5,SUMMIT & VEITCH,3936,7260,2007,,381,,Sold,,,https://www.redfin.com/VA/Arlington/5130-9th-St-N-22205/home/11242037,BRIGHT MLS,VAAR2040448,N,Y,38.8794226,-77.1243585
PAST SALE,March-8-2024,Townhouse,2601 N Winchester St N,Arlington,VA,22213,677123,2,2.0,CHURCH COURTS,1240,3484,1948,,546,,Sold,,,https://www.redfin.com/VA/Arlington/2601-N-Winchester-St-22213/home/11225523,BRIGHT MLS,VAAR2039864,N,Y,38.889387,-77.165931
PAST SALE,January-31-2024,Single Family Residential,114 N Cleveland St N,Arlington,VA,22201,1056000,3,2.0,CLARENDON,1612,3800,1938,,655,,Sold,,,https://www.redfin.com/VA/Arlington/114-N-Cleveland-St-22201/home/11255560,BRIGHT MLS,VAAR2038878,N,Y,38.8765887,-77.0886236
PAST SALE,May-23-2024,Single Family Residential,515 N Norwood St,Arlington,VA,22203,1510000,4,3.5,ASHTON HEIGHTS,2447,6900,1938,,617,,Sold,,,https://www.redfin.com/VA/Arlington/515-N-Norwood-St-22203/home/11256414,BRIGHT MLS,VAAR2041580,N,Y,38.8779331,-77.1026925
PAST SALE,May-28-2024,Condo/Co-op,3409 Wilson Blvd #808,Arlington,VA,22201,730000,2,2.0,Arlington,1130,,2008,,646,768,Sold,,,https://www.redfin.com/VA/Arlington/3409-Wilson-Blvd-22201/unit-808/home/82336896,BRIGHT MLS,VAAR2042648,N,Y,38.8832763,-77.1002986
PAST SALE,December-29-2023,Condo/Co-op,4241 Columbia Pike #207,Arlington,VA,22204,240000,2,1.5,TANGLEWOOD,1072,,1966,,224,831,Sold,,,https://www.redfin.com/VA/Arlington/4241-Columbia-Pike-22204/unit-207/home/11261433,BRIGHT MLS,VAAR2038168,N,Y,38.8591305,-77.1036029
PAST SALE,May-15-2024,Single Family Residential,718 N Nelson St,Arlington,VA,22203,965000,4,2.0,KENMORE,1782,3820,1939,,542,,Sold,,,https://www.redfin.com/VA/Arlington/718-N-Nelson-St-22203/home/11256991,BRIGHT MLS,VAAR2042840,N,Y,38.8806121,-77.1032207
PAST SALE,May-8-2024,Condo/Co-op,3800 Fairfax Dr #1509,Arlington,VA,22203,625000,2,2.0,TOWER VILLA,1380,,1974,,453,1166,Sold,,,https://www.redfin.com/VA/Arlington/3800-Fairfax-Dr-22203/unit-1509/home/11245584,BRIGHT MLS,VAAR2042250,N,Y,38.8821571,-77.1050976
PAST SALE,February-7-2024,Condo/Co-op,1050 N Stuart St #702,Arlington,VA,22201,653500,2,2.0,BALLSTON PARK,1034,,1995,,632,634,Sold,,,https://www.redfin.com/VA/Arlington/1050-N-Stuart-St-22201/unit-702/home/11244657,BRIGHT MLS,VAAR2038974,N,Y,38.8835336,-77.1123801
PAST SALE,February-14-2024,Condo/Co-op,888 N Quincy St #1912,Arlington,VA,22203,898000,2,2.0,BALLSTON,1257,,2007,,714,894,Sold,,,https://www.redfin.com/VA/Arlington/888-N-Quincy-St-22203/unit-1912/home/16898221,BRIGHT MLS,VAAR2039796,N,Y,38.8808474,-77.1079204
PAST SALE,January-3-2024,Condo/Co-op,4141 N Henderson Rd #623,Arlington,VA,22203,610000,3,2.0,HYDE PARK,1419,,1973,,430,1106,Sold,,,https://www.redfin.com/VA/Arlington/4141-N-Henderson-Rd-22203/unit-623/home/11257315,BRIGHT MLS,VAAR2038286,N,Y,38.8758024,-77.1094008
PAST SALE,April-19-2024,Single Family Residential,4601 2nd St S,Arlington,VA,22204,1260000,4,3.5,BARCROFT,2701,5981,1952,,466,,Sold,,,https://www.redfin.com/VA/Arlington/4601-2nd-St-S-22204/home/11260586,BRIGHT MLS,VAAR2041464,N,Y,38.8649409,-77.1095223
PAST SALE,May-13-2024,Single Family Residential,1402 N Lincoln St,Arlington,VA,22201,1500000,4,2.5,DOUGLAS EST,2200,5830,1989,,682,,Sold,,,https://www.redfin.com/VA/Arlington/1402-N-Lincoln-St-22201/home/11247876,BRIGHT MLS,VAAR2042462,N,Y,38.8887292,-77.1035526
PAST SALE,May-6-2024,Single Family Residential,6115 18th Rd N,Arlington,VA,22205,1565000,4,2.5,OVER LEE KNOLLS,2763,6380,1947,,566,,Sold,,,https://www.redfin.com/VA/Arlington/6115-18th-Rd-N-22205/home/11239903,BRIGHT MLS,VAAR2041912,N,Y,38.8868028,-77.1475951
PAST SALE,April-26-2024,Single Family Residential,1106 N Inglewood St,Arlington,VA,22205,1227000,4,2.5,LACEY FOREST,2090,5438,1940,,587,,Sold,,,https://www.redfin.com/VA/Arlington/1106-N-Inglewood-St-22205/home/11237484,BRIGHT MLS,VAAR2042016,N,Y,38.8818316,-77.1311584
PAST SALE,May-23-2024,Single Family Residential,6007 Langston Blvd,Arlington,VA,22205,880000,4,2.0,OVERLEE,2213,7200,1953,,398,,Sold,,,https://www.redfin.com/VA/Arlington/6007-Langston-Blvd-22205/home/11225832,BRIGHT MLS,VAAR2042436,N,Y,38.894267,-77.146444
PAST SALE,May-31-2024,Single Family Residential,2016 N Madison St,Arlington,VA,22205,1950000,5,4.5,PARKHURST,4551,6611,2019,,428,,Sold,,,https://www.redfin.com/VA/Arlington/2016-N-Madison-St-22205/home/11238268,BRIGHT MLS,VAAR2042654,N,Y,38.8895458,-77.14396
PAST SALE,February-27-2024,Single Family Residential,5616 8th Rd N,Arlington,VA,22205,1725000,5,4.5,BONAIR,3794,6000,2016,,455,,Sold,,,https://www.redfin.com/VA/Arlington/5616-8th-Rd-N-22205/home/114033532,BRIGHT MLS,VAAR2039706,N,Y,38.8755641,-77.1288014
PAST SALE,May-30-2024,Condo/Co-op,1024 N Utah St #222,Arlington,VA,22201,400000,1,1.0,WESTVIEW AT BALLSTON METRO,698,,2005,,573,525,Sold,,,https://www.redfin.com/VA/Arlington/1024-N-Utah-St-22201/unit-222/home/11280309,BRIGHT MLS,VAAR2042886,N,Y,38.8828413,-77.1140883
PAST SALE,January-5-2024,Single Family Residential,1717 N Edison St N,Arlington,VA,22207,1307500,4,3.5,HIGHVIEW PARK,3340,7380,2002,,391,,Sold,,,https://www.redfin.com/VA/Arlington/1717-N-Edison-St-22207/home/11278601,BRIGHT MLS,VAAR2038256,N,Y,38.8908445,-77.1266067
PAST SALE,April-5-2024,Single Family Residential,1615 N Kenilworth St,Arlington,VA,22205,1401000,4,3.0,LEEWAY HEIGHTS,2102,8337,1947,,667,,Sold,,,https://www.redfin.com/VA/Arlington/1615-N-Kenilworth-St-22205/home/11236918,BRIGHT MLS,VAAR2040362,N,Y,38.8871042,-77.1365034
PAST SALE,June-3-2024,Single Family Residential,120 N Granada St,Arlington,VA,22203,1385000,4,4.0,ARLINGTON FOREST,2444,6050,1941,,567,,Sold,,,https://www.redfin.com/VA/Arlington/120-N-Granada-St-22203/home/11243529,BRIGHT MLS,VAAR2043014,N,Y,38.8690059,-77.1239054
PAST SALE,March-20-2024,Single Family Residential,5827 19th St N,Arlington,VA,22205,1306000,4,3.5,PARKHURST,1331,6000,1947,,981,,Sold,,,https://www.redfin.com/VA/Arlington/5827-19th-St-N-22205/home/11238239,BRIGHT MLS,VAAR2039402,N,Y,38.8883438,-77.1421663
PAST SALE,April-8-2024,Condo/Co-op,1021 N Garfield St #446,Arlington,VA,22201,512000,1,1.0,CLARENDON 1021,746,,2005,,686,466,Sold,,,https://www.redfin.com/VA/Arlington/1021-N-Garfield-St-22201/unit-446/home/11281302,BRIGHT MLS,VAAR2040918,N,Y,38.8855092,-77.0933367
PAST SALE,April-15-2024,Condo/Co-op,1021 N Garfield St #1046,Arlington,VA,22201,535000,1,1.0,CLARENDON 1021,746,,2005,,717,466,Sold,,,https://www.redfin.com/VA/Arlington/1021-N-Garfield-St-22201/unit-1046/home/11281518,BRIGHT MLS,VAAR2040618,N,Y,38.8855092,-77.0933367
PAST SALE,December-28-2023,Condo/Co-op,3515 Washington Blvd #312,Arlington,VA,22201,343155,3,2.0,WENTWORTH PLACE,1200,,1960,,286,888,Sold,,,https://www.redfin.com/VA/Arlington/3515-Washington-Blvd-22201/unit-312/home/11248516,BRIGHT MLS,VAAR2038188,N,Y,38.8864178,-77.1047829
PAST SALE,February-16-2024,Condo/Co-op,6908 Fairfax Dr #402,Arlington,VA,22213,588000,2,2.0,FALLS STATION,1311,,1994,,449,466,Sold,,,https://www.redfin.com/VA/Arlington/6908-Fairfax-Dr-22213/unit-402/home/11239301,BRIGHT MLS,VAAR2039388,N,Y,38.8881537,-77.1633227
PAST SALE,March-13-2024,Single Family Residential,5614 1st St S,Arlington,VA,22204,1275000,5,3.5,GLEN CARLIN,3300,6000,1988,,386,,Sold,,,https://www.redfin.com/VA/Arlington/5614-1st-St-S-22204/home/11258616,BRIGHT MLS,VAAR2040008,N,Y,38.8651848,-77.1249547
PAST SALE,February-27-2024,Townhouse,1110-A N Stafford St N,Arlington,VA,22201,1305000,3,3.5,BALLSTON AREA TOWNH,2002,1330,1996,,652,100,Sold,,,https://www.redfin.com/VA/Arlington/1110-A-N-Stafford-St-22201/home/189415352,BRIGHT MLS,VAAR2039356,N,Y,38.88438,-77.11094
PAST SALE,March-13-2024,Condo/Co-op,1000 Randolph St N #303,Arlington,VA,22201,720000,2,2.0,BERKELEY,1325,,2004,,543,923,Sold,,,https://www.redfin.com/VA/Arlington/1000-N-Randolph-St-22201/unit-303/home/11279245,BRIGHT MLS,VAAR2039912,N,Y,38.8827696,-77.1097108
PAST SALE,January-29-2024,Townhouse,2017 N Brandywine St,Arlington,VA,22207,1067000,4,3.5,BECKET GLEN,2784,1647,1980,,383,50,Sold,,,https://www.redfin.com/VA/Arlington/2017-N-Brandywine-St-22207/home/11234673,BRIGHT MLS,VAAR2038448,N,Y,38.894362,-77.1225164
PAST SALE,May-1-2024,Condo/Co-op,3800 Fairfax Dr #1601,Arlington,VA,22203,380000,1,1.0,TOWER VILLAS,1110,,1974,,342,944,Sold,,,https://www.redfin.com/VA/Arlington/3800-Fairfax-Dr-22203/unit-1601/home/11245590,BRIGHT MLS,VAAR2040196,N,Y,38.8821571,-77.1050976
PAST SALE,April-10-2024,Condo/Co-op,888 N Quincy St #905,Arlington,VA,22203,492000,1,1.0,RESIDENCES AT LIBERTY CENTER,693,,2008,,710,521,Sold,,,https://www.redfin.com/VA/Arlington/888-N-Quincy-St-22203/unit-905/home/16897721,BRIGHT MLS,VAAR2041424,N,Y,38.8808474,-77.1079204
PAST SALE,February-23-2024,Condo/Co-op,851 N Glebe Rd #907,Arlington,VA,22203,449900,1,1.0,CONTINENTAL,750,,2003,,600,422,Sold,,,https://www.redfin.com/VA/Arlington/851-N-Glebe-Rd-22203/unit-907/home/11279437,BRIGHT MLS,VAAR2039206,N,Y,38.8812488,-77.1145593
PAST SALE,March-19-2024,Single Family Residential,420 S Highland St S,Arlington,VA,22204,939900,3,2.5,ARLINGTON HEIGHTS,1595,5500,1985,,589,,Sold,,,https://www.redfin.com/VA/Arlington/420-S-Highland-St-22204/home/11262385,BRIGHT MLS,VAAR2040164,N,Y,38.8684428,-77.0908291
PAST SALE,April-9-2024,Single Family Residential,2802 1st Rd N,Arlington,VA,22201,1051000,3,2.0,CLARENDON,1686,6010,1937,,623,,Sold,,,https://www.redfin.com/VA/Arlington/2802-1st-Rd-N-22201/home/11255569,BRIGHT MLS,VAAR2040942,N,Y,38.875674,-77.0889003
PAST SALE,February-21-2024,Condo/Co-op,4501 Arlington Blvd #624,Arlington,VA,22203,260000,1,1.0,THE CHATHAM,940,,1965,,277,722,Sold,,,https://www.redfin.com/VA/Arlington/4501-Arlington-Blvd-22203/unit-624/home/11257759,BRIGHT MLS,VAAR2039262,N,Y,38.8692333,-77.1087161
PAST SALE,March-19-2024,Single Family Residential,5008 N Carlin Springs Rd,Arlington,VA,22203,1100000,4,3.5,ARLINGTON FOREST,2444,7513,1946,,450,,Sold,,,https://www.redfin.com/VA/Arlington/5008-N-Carlin-Springs-Rd-22203/home/11243169,BRIGHT MLS,VAAR2039954,N,Y,38.8737481,-77.1170663
PAST SALE,March-15-2024,Single Family Residential,719 N Albemarle St,Arlington,VA,22203,1250000,4,3.0,BRANDON VILLAGE,2107,9637,1940,,593,,Sold,,,https://www.redfin.com/VA/Arlington/719-N-Albemarle-St-22203/home/11242351,BRIGHT MLS,VAAR2040286,N,Y,38.8774982,-77.1177145
PAST SALE,April-4-2024,Condo/Co-op,900 N Stafford St #1903,Arlington,VA,22203,535000,2,2.0,ALTA VISTA,980,,1989,,546,683,Sold,,,https://www.redfin.com/VA/Arlington/900-N-Stafford-St-22203/unit-1903/home/11246118,BRIGHT MLS,VAAR2040864,N,Y,38.8817216,-77.1108967
PAST SALE,May-10-2024,Condo/Co-op,600 Roosevelt Blvd #512,Falls Church,VA,22044,220000,2,1.5,MADISON CONDOMINIUM,1089,,1964,,202,1425,Sold,,,https://www.redfin.com/VA/Falls-Church/600-Roosevelt-Blvd-22044/unit-512/home/12036409,BRIGHT MLS,VAFA2002152,N,Y,38.8777929,-77.1529652
PAST SALE,December-15-2023,Single Family Residential,5830 19th St N,Arlington,VA,22205,902500,2,1.5,PARKHURST,1500,7050,1947,,602,,Sold,,,https://www.redfin.com/VA/Arlington/5830-19th-St-N-22205/home/11238323,BRIGHT MLS,VAAR2037820,N,Y,38.8879696,-77.1420866
PAST SALE,April-3-2024,Condo/Co-op,1045 N Utah St Unit 2-305,Arlington,VA,22201,410000,1,1.0,WINDSOR PLAZA,716,,1994,,573,572,Sold,,,https://www.redfin.com/VA/Arlington/1045-N-Utah-St-22201/unit-2-305/home/11244557,BRIGHT MLS,VAAR2041482,N,Y,38.8832871,-77.1135655
PAST SALE,May-3-2024,Condo/Co-op,1021 N Garfield St N #414,Arlington,VA,22201,585000,1,1.0,CLARENDON 1021,873,,2005,,670,542,Sold,,,https://www.redfin.com/VA/Arlington/1021-N-Garfield-St-22201/unit-414/home/11281270,BRIGHT MLS,VAAR2040004,N,Y,38.8855092,-77.0933367
PAST SALE,March-21-2024,Single Family Residential,1717 Culpeper St N,Arlington,VA,22207,1485000,4,2.5,HIGHVIEW PARK,2476,5227,1947,,600,,Sold,,,https://www.redfin.com/VA/Arlington/1717-N-Culpeper-St-22207/home/11234598,BRIGHT MLS,VAAR2040282,N,Y,38.8912017,-77.121603
PAST SALE,April-30-2024,Single Family Residential,6212 19th St N,Arlington,VA,22205,1217500,3,2.0,OVER LEE KNOLLS,2000,5890,1940,,609,,Sold,,,https://www.redfin.com/VA/Arlington/6212-19th-St-N-22205/home/11239943,BRIGHT MLS,VAAR2041338,N,Y,38.8866882,-77.1492212
PAST SALE,March-18-2024,Single Family Residential,112 N Abingdon St,Arlington,VA,22203,1542000,5,4.0,ARLINGTON FOREST,2695,6167,1941,,572,,Sold,,,https://www.redfin.com/VA/Arlington/112-N-Abingdon-St-22203/home/11243768,BRIGHT MLS,VAAR2039922,N,Y,38.8686893,-77.1150247
PAST SALE,April-5-2024,Single Family Residential,4020 20th St N,Arlington,VA,22207,800000,2,1.0,CHERRYDALE,870,3572,1937,,920,,Sold,,,https://www.redfin.com/VA/Arlington/4020-20th-St-N-22207/home/11233933,BRIGHT MLS,VAAR2040890,N,Y,38.8944903,-77.1087804
PAST SALE,March-8-2024,Townhouse,847 S Ivy St S,Arlington,VA,22204,660000,2,2.0,WESTMONT,1415,3000,1939,,466,,Sold,,,https://www.redfin.com/VA/Arlington/847-S-Ivy-St-22204/home/11263107,BRIGHT MLS,VAAR2040138,N,Y,38.8634624,-77.0910282
PAST SALE,April-11-2024,Townhouse,3000 Federal Hill Dr,Falls Church,VA,22044,753236,3,3.5,FEDERAL HILL,2526,1340,1980,,298,241,Sold,,,https://www.redfin.com/VA/Falls-Church/3000-Federal-Hill-Dr-22044/home/9568531,BRIGHT MLS,VAFX2169122,N,Y,38.8673524,-77.1399665
PAST SALE,May-21-2024,Single Family Residential,416 N Kensington St,Arlington,VA,22205,1261500,4,4.0,BONAIR,2546,6030,1960,,495,,Sold,,,https://www.redfin.com/VA/Arlington/416-N-Kensington-St-22205/home/11242840,BRIGHT MLS,VAAR2043118,N,Y,38.8713741,-77.1288841
PAST SALE,May-24-2024,Condo/Co-op,3800 Fairfax Dr #1306,Arlington,VA,22203,605000,2,2.0,TOWER VILLA,1560,,1974,,388,1286,Sold,,,https://www.redfin.com/VA/Arlington/3800-Fairfax-Dr-22203/unit-1306/home/11245553,BRIGHT MLS,VAAR2042826,N,Y,38.8821571,-77.1050976
PAST SALE,May-8-2024,Single Family Residential,5861 15th Rd N,Arlington,VA,22205,931000,2,2.0,WESTOVER,1250,5000,1939,,745,,Sold,,,https://www.redfin.com/VA/Arlington/5861-15th-Rd-N-22205/home/11238532,BRIGHT MLS,VAAR2042184,N,Y,38.8846337,-77.1416453
PAST SALE,May-20-2024,Single Family Residential,627 N Kenmore St,Arlington,VA,22201,1880000,4,2.5,CLARENDON,3507,11491,1920,,536,,Sold,,,https://www.redfin.com/VA/Arlington/627-N-Kenmore-St-22201/home/11256264,BRIGHT MLS,VAAR2042202,N,Y,38.8802937,-77.099568
PAST SALE,April-23-2024,Condo/Co-op,4308 2nd Rd N #43082,Arlington,VA,22203,330000,2,1.0,ARLINGTON OAKS,894,,1940,,369,565,Sold,,,https://www.redfin.com/VA/Arlington/4308-2nd-Rd-N-22203/unit-43082/home/11258062,BRIGHT MLS,VAAR2041174,N,Y,38.8716497,-77.1061091
PAST SALE,May-24-2024,Condo/Co-op,820 N Pollard St #401,Arlington,VA,22203,750000,2,2.0,HAWTHORN,1184,,2006,,633,710,Sold,,,https://www.redfin.com/VA/Arlington/820-N-Pollard-St-22203/unit-401/home/12040897,BRIGHT MLS,VAAR2041882,N,Y,38.8803754,-77.1068155
PAST SALE,March-18-2024,Condo/Co-op,1050 N Taylor St Unit 1-102,Arlington,VA,22201,545000,2,2.0,WINDSOR PLAZA,850,,1994,,641,777,Sold,,,https://www.redfin.com/VA/Arlington/1050-N-Taylor-St-22201/unit-1-102/home/11244435,BRIGHT MLS,VAAR2040580,N,Y,38.8833556,-77.1131323
PAST SALE,May-23-2024,Condo/Co-op,900 N Stafford St #2125,Arlington,VA,22203,769999,3,2.5,ALTA VISTA,1405,,1989,,548,994,Sold,,,https://www.redfin.com/VA/Arlington/900-N-Stafford-St-22203/unit-2125/home/11246158,BRIGHT MLS,VAAR2042174,N,Y,38.8817216,-77.1108967
PAST SALE,February-2-2024,Condo/Co-op,888 N Quincy St #1509,Arlington,VA,22203,700000,2,2.0,RESIDENCES AT LIBERTY CENTER,1022,,2008,,685,814,Sold,,,https://www.redfin.com/VA/Arlington/888-N-Quincy-St-22203/unit-1509/home/16898272,BRIGHT MLS,VAAR2038838,N,Y,38.8808474,-77.1079204
PAST SALE,May-3-2024,Single Family Residential,6008 20th St N,Arlington,VA,22205,995000,2,2.0,OVER LEE KNOLLS,1633,5500,1934,,609,,Sold,,,https://www.redfin.com/VA/Arlington/6008-20th-St-N-22205/home/11239837,BRIGHT MLS,VAAR2042324,N,Y,38.8885436,-77.1448796
PAST SALE,February-27-2024,Condo/Co-op,804 S Arlington Mill Dr #11301,Arlington,VA,22204,246000,1,1.0,PARK GLEN,539,,1947,,456,393,Sold,,,https://www.redfin.com/VA/Arlington/804-S-Arlington-Mill-Dr-22204/unit-11301/home/11259368,BRIGHT MLS,VAAR2039584,N,Y,38.8601739,-77.1141056
PAST SALE,April-22-2024,Single Family Residential,6316 17th St N,Arlington,VA,22205,1200000,4,3.0,MADISON MANOR,2004,7044,1948,,599,,Sold,,,https://www.redfin.com/VA/Arlington/6316-17th-St-N-22205/home/11240068,BRIGHT MLS,VAAR2040948,N,Y,38.8822762,-77.1539422
PAST SALE,April-8-2024,Single Family Residential,6254 22nd St N,Arlington,VA,22205,1360000,4,3.5,OVER LEE KNOLLS,2440,7000,1922,,557,,Sold,,,https://www.redfin.com/VA/Arlington/6254-22nd-St-N-22205/home/11239702,BRIGHT MLS,VAAR2040916,N,Y,38.8889227,-77.1516802
PAST SALE,May-24-2024,Single Family Residential,3201 12th St S,Arlington,VA,22204,700000,4,2.0,ARL VIILAGE/ARL HILLS,1116,6404,1941,,627,,Sold,,,https://www.redfin.com/VA/Arlington/3201-12th-St-S-22204/home/11272975,BRIGHT MLS,VAAR2042958,N,Y,38.8601199,-77.090284
PAST SALE,February-16-2024,Single Family Residential,4508 8th St S,Arlington,VA,22204,855000,2,2.0,BARCROFT,1554,7740,1898,,550,,Sold,,,https://www.redfin.com/VA/Arlington/4508-8th-St-S-22204/home/11261471,BRIGHT MLS,VAAR2038960,N,Y,38.8605207,-77.107277
PAST SALE,December-8-2023,Single Family Residential,810 N Harrison St,Arlington,VA,22205,1994700,5,4.5,BONAIR,5026,7107,2023,,397,,Sold,,,https://www.redfin.com/VA/Arlington/810-N-Harrison-St-22205/home/11242612,BRIGHT MLS,VAAR2037428,N,Y,38.8760035,-77.1260224
PAST SALE,May-17-2024,Condo/Co-op,2532 Fairfax Dr Unit 3CII,Arlington,VA,22201,785000,2,2.0,BARTON PLACE,1224,,1985,,641,521,Sold,,,https://www.redfin.com/VA/Arlington/2532-Fairfax-Dr-22201/unit-3CII/home/190548424,BRIGHT MLS,VAAR2042728,N,Y,38.887233,-77.088726
PAST SALE,May-17-2024,Condo/Co-op,1045 N Utah St Unit 2-406,Arlington,VA,22201,410000,1,1.0,WINDSOR PLAZA,675,,1994,,607,572,Sold,,,https://www.redfin.com/VA/Arlington/1045-N-Utah-St-22201/unit-2-406/home/11244573,BRIGHT MLS,VAAR2042816,N,Y,38.8832871,-77.1135655
PAST SALE,April-29-2024,Single Family Residential,870 N Arlington Mill Dr,Arlington,VA,22205,912000,3,2.0,DOMINION HILLS,2200,8534,1953,,415,,Sold,,,https://www.redfin.com/VA/Arlington/870-N-Arlington-Mill-Dr-22205/home/11241157,BRIGHT MLS,VAAR2040764,N,Y,38.8756666,-77.1353265
PAST SALE,April-30-2024,Single Family Residential,838 S Monroe St,Arlington,VA,22204,709999,4,2.5,ALCOVA HEIGHTS,1425,5000,1939,,498,,Sold,,,https://www.redfin.com/VA/Arlington/838-S-Monroe-St-22204/home/11261265,BRIGHT MLS,VAAR2041640,N,Y,38.8625636,-77.0950265
PAST SALE,February-12-2024,Single Family Residential,5707 9th St N,Arlington,VA,22205,1450000,4,2.0,BROCKWOOD,2405,13501,1940,,603,,Sold,,,https://www.redfin.com/VA/Arlington/5707-9th-St-N-22205/home/11241822,BRIGHT MLS,VAAR2039332,N,Y,38.8779323,-77.1329694
PAST SALE,May-24-2024,Single Family Residential,118 N Nottingham St,Arlington,VA,22203,916000,3,2.5,SPY HILL BLVD MANOR,2644,8814,1965,,346,,Sold,,,https://www.redfin.com/VA/Arlington/118-N-Nottingham-St-22203/home/11241618,BRIGHT MLS,VAAR2043116,N,Y,38.867514,-77.1381126
PAST SALE,February-5-2024,Condo/Co-op,4501 Arlington Blvd #229,Arlington,VA,22203,275500,1,1.0,THE CHATHAM,819,,1965,,336,657,Sold,,,https://www.redfin.com/VA/Arlington/4501-Arlington-Blvd-22203/unit-229/home/11257638,BRIGHT MLS,VAAR2038806,N,Y,38.8692333,-77.1087161
PAST SALE,May-13-2024,Condo/Co-op,901 N Monroe St #1208,Arlington,VA,22201,688000,2,2.0,VIRGINIA SQUARE,1009,,1999,,682,689,Sold,,,https://www.redfin.com/VA/Arlington/901-N-Monroe-St-22201/unit-1208/home/11278143,BRIGHT MLS,VAAR2042086,N,Y,38.8831654,-77.1026879
PAST SALE,February-23-2024,Condo/Co-op,3800 Fairfax Dr #102,Arlington,VA,22203,715000,3,2.0,TOWER VILLA,1710,,1974,,418,1399,Sold,,,https://www.redfin.com/VA/Arlington/3800-Fairfax-Dr-22203/unit-102/home/11245392,BRIGHT MLS,VAAR2038658,N,Y,38.8821571,-77.1050976
PAST SALE,March-22-2024,Single Family Residential,1208 N Powhatan St,Arlington,VA,22205,1510000,5,4.0,MADISON MANOR,3400,7172,1947,,444,,Sold,,,https://www.redfin.com/VA/Arlington/1208-N-Powhatan-St-22205/home/11240203,BRIGHT MLS,VAAR2039016,N,Y,38.8814507,-77.1493814
PAST SALE,May-30-2024,Single Family Residential,1460 N Longfellow St,Arlington,VA,22205,953000,3,3.0,WESTOVER,2012,5270,1940,,474,,Sold,,,https://www.redfin.com/VA/Arlington/1460-N-Longfellow-St-22205/home/11238502,BRIGHT MLS,VAAR2042902,N,Y,38.8837453,-77.1414682
PAST SALE,January-31-2024,Single Family Residential,6009 4th St N,Arlington,VA,22203,1622551,5,3.5,SPY HILL BLVD MANOR,3824,6110,1993,,424,,Sold,,,https://www.redfin.com/VA/Arlington/6009-4th-St-N-22203/home/11241563,BRIGHT MLS,VAAR2037446,N,Y,38.8700083,-77.1377228
PAST SALE,January-26-2024,Single Family Residential,952 N Rochester St,Arlington,VA,22205,1100000,4,3.0,MADISON MANOR,3058,12798,1964,,360,,Sold,,,https://www.redfin.com/VA/Arlington/952-N-Rochester-St-22205/home/12036322,BRIGHT MLS,VAAR2038546,N,Y,38.8764495,-77.1514373
PAST SALE,May-10-2024,Single Family Residential,206 N Fillmore St,Arlington,VA,22201,1600000,5,3.0,ASHTON HEIGHTS,2482,5790,1920,,645,,Sold,,,https://www.redfin.com/VA/Arlington/206-N-Fillmore-St-22201/home/11255524,BRIGHT MLS,VAAR2042180,N,Y,38.8768355,-77.0910933
PAST SALE,April-11-2024,Single Family Residential,925 N Jacksonville St N,Arlington,VA,22205,1325000,4,3.0,BROCKWOOD,2328,6972,1986,,569,,Sold,,,https://www.redfin.com/VA/Arlington/925-N-Jacksonville-St-22205/home/11241784,BRIGHT MLS,VAAR2040266,N,Y,38.8789245,-77.1312573
PAST SALE,February-14-2024,Condo/Co-op,1050 N Stuart St #325,Arlington,VA,22201,424999,1,1.0,BALLSTON PARK,748,,1995,,568,488,Sold,,,https://www.redfin.com/VA/Arlington/1050-N-Stuart-St-22201/unit-325/home/11244740,BRIGHT MLS,VAAR2038730,N,Y,38.8835336,-77.1123801
PAST SALE,March-20-2024,Townhouse,3424 11th St S,Arlington,VA,22204,975000,4,4.5,PIKE 3400,2511,1393,2015,,388,155,Sold,,,https://www.redfin.com/VA/Arlington/3424-11th-St-S-22204/home/101388527,BRIGHT MLS,VAAR2040192,N,Y,38.8600678,-77.0924633
PAST SALE,May-16-2024,Single Family Residential,1023 N Edgewood St N,Arlington,VA,22201,1850000,4,3.5,CLARENDON,3000,6000,2005,,617,,Sold,,,https://www.redfin.com/VA/Arlington/1023-N-Edgewood-St-22201/home/11254925,BRIGHT MLS,VAAR2040904,N,Y,38.8853924,-77.0914979
PAST SALE,May-23-2024,Single Family Residential,5509 5th St S,Arlington,VA,22204,900000,3,2.0,GLEN CARLIN,1242,6000,1951,,725,,Sold,,,https://www.redfin.com/VA/Arlington/5509-5th-St-S-22204/home/11258882,BRIGHT MLS,VAAR2042400,N,Y,38.8625647,-77.1227343
PAST SALE,April-25-2024,Condo/Co-op,1205 N Garfield St Ph 8,Arlington,VA,22201,734000,2,2.0,RESIDENCES AT STATION SQUARE,998,,2005,,735,645,Sold,,,https://www.redfin.com/VA/Arlington/1205-N-Garfield-St-22201/unit-8/home/11281101,BRIGHT MLS,VAAR2041072,N,Y,38.8869127,-77.0934499
PAST SALE,April-12-2024,Single Family Residential,5600 22nd St N,Arlington,VA,22205,1160000,5,3.0,LEEWAY HEIGHTS,2348,7863,1962,,494,,Sold,,,https://www.redfin.com/VA/Arlington/5600-22nd-St-N-22205/home/11238739,BRIGHT MLS,VAAR2040208,N,Y,38.8922533,-77.1395226
PAST SALE,April-16-2024,Single Family Residential,4755 1st St N,Arlington,VA,22203,955000,3,2.0,ARLINGTON FOREST,1756,6875,1941,,544,,Sold,,,https://www.redfin.com/VA/Arlington/4755-1st-St-N-22203/home/11243771,BRIGHT MLS,VAAR2041236,N,Y,38.8681371,-77.1152616
PAST SALE,May-2-2024,Townhouse,2034 N Westmoreland St,Arlington,VA,22213,1123034,3,2.5,18 WEST,2578,1170,2005,,436,270,Sold,,,https://www.redfin.com/VA/Arlington/2034-N-Westmoreland-St-22213/home/11279207,BRIGHT MLS,VAAR2040852,N,Y,38.8858453,-77.1620844
PAST SALE,May-7-2024,Condo/Co-op,1201 N Garfield St #105,Arlington,VA,22201,685000,2,2.0,STATION SQUARE,1006,,2006,,681,632,Sold,,,https://www.redfin.com/VA/Arlington/1201-N-Garfield-St-22201/unit-105/home/12041401,BRIGHT MLS,VAAR2042320,N,Y,38.8866753,-77.0934537
PAST SALE,February-14-2024,Single Family Residential,4600 7th St N,Arlington,VA,22203,1225000,5,2.5,BRANDON VILLAGE,2297,8207,1966,,533,,Sold,,,https://www.redfin.com/VA/Arlington/4600-7th-St-N-22203/home/11242270,BRIGHT MLS,VAAR2038930,N,Y,38.87749,-77.1156617
PAST SALE,March-19-2024,Single Family Residential,120 N Liberty St,Arlington,VA,22203,1270000,4,3.5,SPY HILL BLVD MANOR,3185,4025,1979,,399,29,Sold,,,https://www.redfin.com/VA/Arlington/120-N-Liberty-St-22203/home/11241523,BRIGHT MLS,VAAR2040030,N,Y,38.8693895,-77.1370426
PAST SALE,May-31-2024,Single Family Residential,4700 2nd St N,Arlington,VA,22203,993000,3,2.0,ARLINGTON FOREST,1716,6250,1941,,579,,Sold,,,https://www.redfin.com/VA/Arlington/4700-2nd-St-N-22203/home/11243761,BRIGHT MLS,VAAR2042114,N,Y,38.8697334,-77.1144704
PAST SALE,May-6-2024,Condo/Co-op,1050 N Taylor St #601,Arlington,VA,22201,540000,2,2.0,WINDSOR PLAZA,892,,1994,,605,777,Sold,,,https://www.redfin.com/VA/Arlington/1050-N-Taylor-St-22201/unit-601/home/142422543,BRIGHT MLS,VAAR2042124,N,Y,38.8833506,-77.1131463
PAST SALE,March-20-2024,Single Family Residential,124 S Park Dr,Arlington,VA,22204,727000,3,1.0,BARCROFT,1144,5768,1940,,635,,Sold,,,https://www.redfin.com/VA/Arlington/124-S-Park-Dr-22204/home/11258338,BRIGHT MLS,VAAR2040086,N,Y,38.8640339,-77.1172928
PAST SALE,March-29-2024,Condo/Co-op,3701 5th St S #408,Arlington,VA,22204,150000,0,1.0,STRATTON HOUSE,490,,1958,,306,518,Sold,,,https://www.redfin.com/VA/Arlington/3701-5th-St-S-22204/unit-408/home/11260872,BRIGHT MLS,VAAR2040886,N,Y,38.8668515,-77.0978596
PAST SALE,December-21-2023,Condo/Co-op,4324 N Pershing Dr N #3,Arlington,VA,22203,280400,1,1.0,ARLINGTON OAKS,666,,1940,,421,465,Sold,,,https://www.redfin.com/VA/Arlington/4324-N-Pershing-Dr-22203/unit-3/home/143373806,BRIGHT MLS,VAAR2037812,N,Y,38.8719305,-77.1075296
PAST SALE,April-15-2024,Single Family Residential,309 N Greenbrier St N,Arlington,VA,22203,1194000,3,3.0,ARLINGTON FOREST,2372,6575,1941,,503,,Sold,,,https://www.redfin.com/VA/Arlington/309-N-Greenbrier-St-22203/home/11243338,BRIGHT MLS,VAAR2040718,N,Y,38.8711039,-77.1212347
PAST SALE,April-24-2024,Condo/Co-op,900 N Stafford St #1608,Arlington,VA,22203,587000,2,2.0,ALTA VISTA,905,,1989,,649,640,Sold,,,https://www.redfin.com/VA/Arlington/900-N-Stafford-St-22203/unit-1608/home/11246069,BRIGHT MLS,VAAR2041120,N,Y,38.8817216,-77.1108967
PAST SALE,May-13-2024,Single Family Residential,375 S George Mason Dr,Arlington,VA,22204,842500,4,2.0,BARCROFT,1888,8995,1949,,446,,Sold,,,https://www.redfin.com/VA/Arlington/375-S-George-Mason-Dr-22204/home/11261746,BRIGHT MLS,VAAR2041954,N,Y,38.8652543,-77.1052999
PAST SALE,February-20-2024,Single Family Residential,5887 2nd St S,Arlington,VA,22204,915000,5,3.0,SPY HILL BLVD MANOR,2276,7000,1951,,402,,Sold,,,https://www.redfin.com/VA/Arlington/5887-2nd-St-S-22204/home/11258478,BRIGHT MLS,VAAR2039632,N,Y,38.8649141,-77.1320901
PAST SALE,May-15-2024,Single Family Residential,968 N Rochester St,Arlington,VA,22205,1415000,4,3.5,MADISON MANOR,3907,11330,1961,,362,,Sold,,,https://www.redfin.com/VA/Arlington/968-N-Rochester-St-22205/home/11240113,BRIGHT MLS,VAFA2002132,N,Y,38.8771337,-77.1516639
PAST SALE,February-2-2024,Single Family Residential,3125 12th St S,Arlington,VA,22204,1113000,4,2.5,ARL VIILAGE/ARL HILLS,2138,8321,1938,,521,,Sold,,,https://www.redfin.com/VA/Arlington/3125-12th-St-S-22204/home/11272973,BRIGHT MLS,VAAR2038858,N,Y,38.8602754,-77.0898794
PAST SALE,February-2-2024,Condo/Co-op,1001 N Vermont St N #908,Arlington,VA,22201,557650,2,1.0,WESTVIEW AT BALLSTON METRO,986,,2005,,566,537,Sold,,,https://www.redfin.com/VA/Arlington/1001-N-Vermont-St-22201/unit-908/home/11280188,BRIGHT MLS,VAAR2038886,N,Y,38.8832438,-77.1146298
PAST SALE,December-15-2023,Condo/Co-op,900 N Taylor St #2017,Arlington,VA,22203,375000,2,2.0,JEFFERSON RES,1415,,1992,,265,546,Sold,,,https://www.redfin.com/VA/Arlington/900-N-Taylor-St-22203/unit-2017/home/11246734,BRIGHT MLS,VAAR2036946,N,Y,38.8812752,-77.1130095
PAST SALE,,Single Family Residential,5724 4th St N,Arlington,VA,22205,1210000,3,3.5,,1716,5768,1991,,705,,,,,https://www.redfin.com/VA/Arlington/5724-4th-St-N-22205/home/11242961,,,N,Y,38.8701805,-77.1292585
PAST SALE,May-30-2024,Single Family Residential,2616 2nd Rd N,Arlington,VA,22201,2385000,5,4.5,CLARENDON,5168,6250,2020,,461,,Sold,,,https://www.redfin.com/VA/Arlington/2616-2nd-Rd-N-22201/home/11255551,BRIGHT MLS,VAAR2042058,N,Y,38.8776203,-77.0893173
PAST SALE,,Single Family Residential,537 N Livingston St,Arlington,VA,22203,1175000,3,2.5,,2486,6933,1961,,473,,,,,https://www.redfin.com/VA/Arlington/537-N-Livingston-St-22203/home/11241206,,,N,Y,38.8704355,-77.1394608
PAST SALE,December-15-2023,Single Family Residential,128 N Park Dr,Arlington,VA,22203,1360000,4,3.0,ARLINGTON FOREST,4074,6096,1941,,334,,Sold,,,https://www.redfin.com/VA/Arlington/128-N-Park-Dr-22203/home/160465062,BRIGHT MLS,VAAR2037216,N,Y,38.868854,-77.1161362
PAST SALE,January-24-2024,Single Family Residential,2401 John Marshall Dr,Arlington,VA,22207,1200000,6,5.0,NORWOOD,4194,6629,1953,,286,,Sold,,,https://www.redfin.com/VA/Arlington/2401-John-Marshall-Dr-22207/home/11225835,BRIGHT MLS,VAAR2038072,N,Y,38.8940197,-77.1471457
PAST SALE,March-19-2024,Condo/Co-op,1001 N Vermont St #911,Arlington,VA,22201,507500,2,1.0,WESTVIEW AT BALLSTON METRO,955,,2005,,531,664,Sold,,,https://www.redfin.com/VA/Arlington/1001-N-Vermont-St-22201/unit-911/home/11280217,BRIGHT MLS,VAAR2040346,N,Y,38.8832438,-77.1146298
PAST SALE,December-11-2023,Townhouse,2022 N Buchanan Ct,Arlington,VA,22207,865000,3,2.5,DORSEY WOODS,2288,2739,1996,,378,154,Sold,,,https://www.redfin.com/VA/Arlington/2022-N-Buchanan-Ct-22207/home/11234748,BRIGHT MLS,VAAR2037466,N,Y,38.8951949,-77.1252166
PAST SALE,May-10-2024,Townhouse,855 N Burlington St,Arlington,VA,22203,695000,2,2.0,SUMMIT & VEITCH,864,,1940,,804,,Sold,,,https://www.redfin.com/VA/Arlington/855-N-Burlington-St-22203/home/11241677,BRIGHT MLS,VAAR2041694,N,Y,38.8804769,-77.1197221
PAST SALE,May-10-2024,Townhouse,1132 S Lincoln St,Arlington,VA,22204,1000000,5,4.5,Arlington,2527,1472,2015,,396,155,Sold,,,https://www.redfin.com/VA/Arlington/1132-S-Lincoln-St-22204/home/101388472,BRIGHT MLS,VAAR2042452,N,Y,38.8596214,-77.0928068
PAST SALE,January-19-2024,Townhouse,4305 4th Ct N,Arlington,VA,22203,980000,3,3.5,BUCKINGHAM COMMONS,1521,872,2012,,644,176,Sold,,,https://www.redfin.com/VA/Arlington/4305-4th-Ct-N-22203/home/23385401,BRIGHT MLS,VAAR2038414,N,Y,38.8738726,-77.1090199
PAST SALE,May-15-2024,Condo/Co-op,4501 Arlington Blvd #231,Arlington,VA,22203,220000,0,1.0,THE CHATHAM,533,,1965,,413,433,Sold,,,https://www.redfin.com/VA/Arlington/4501-Arlington-Blvd-22203/unit-231/home/11257640,BRIGHT MLS,VAAR2041850,N,Y,38.8692333,-77.1087161
PAST SALE,April-22-2024,Single Family Residential,622 N Jefferson St,Arlington,VA,22205,825000,2,1.0,BONAIR,990,8945,1954,,833,,Sold,,,https://www.redfin.com/VA/Arlington/622-N-Jefferson-St-22205/home/11242731,BRIGHT MLS,VAAR2040522,N,Y,38.8739731,-77.1275297
PAST SALE,March-22-2024,Townhouse,6000 Kelsey Ct,Falls Church,VA,22044,775000,3,3.0,ASHLAWN RIDGE,2241,2363,1992,,346,135,Sold,,,https://www.redfin.com/VA/Falls-Church/6000-Kelsey-Ct-22044/home/9570695,BRIGHT MLS,VAFX2165214,N,Y,38.8665463,-77.138289
PAST SALE,April-25-2024,Single Family Residential,2232 N Kentucky St,Arlington,VA,22205,1640000,4,3.5,TUCKAHOE VILLAGE,3515,5776,2002,,467,,Sold,,,https://www.redfin.com/VA/Arlington/2232-N-Kentucky-St-22205/home/11237933,BRIGHT MLS,VAAR2040274,N,Y,38.8929415,-77.1421573
PAST SALE,January-16-2024,Condo/Co-op,3835 9th St N Unit 601W,Arlington,VA,22203,899000,3,2.5,LEXINGTON SQUARE,1592,,2000,,565,917,Sold,,,https://www.redfin.com/VA/Arlington/3835-9th-St-N-22203/unit-601W/home/11278493,BRIGHT MLS,VAAR2038126,N,Y,38.8814863,-77.1060416
PAST SALE,May-1-2024,Single Family Residential,1515 N Edison St,Arlington,VA,22205,2199000,5,5.5,WAYCROFT,5023,10620,2014,,438,,Sold,,,https://www.redfin.com/VA/Arlington/1515-N-Edison-St-22205/home/101388440,BRIGHT MLS,VAAR2040872,N,Y,38.8878036,-77.1249287
PAST SALE,March-15-2024,Condo/Co-op,1029 N Stuart St #304,Arlington,VA,22201,415000,1,1.0,SUMMERWALK I&II,622,,1985,,667,347,Sold,,,https://www.redfin.com/VA/Arlington/1029-N-Stuart-St-22201/unit-304/home/11244975,BRIGHT MLS,VAAR2040380,N,Y,38.8831127,-77.1115574
PAST SALE,May-31-2024,Condo/Co-op,900 N Taylor St #1417,Arlington,VA,22203,370000,2,2.0,JEFFERSON RES,1352,,1992,,274,521,Sold,,,https://www.redfin.com/VA/Arlington/900-N-Taylor-St-22203/unit-1417/home/11246614,BRIGHT MLS,VAAR2041726,N,Y,38.8812752,-77.1130095
PAST SALE,May-23-2024,Condo/Co-op,900 N Taylor St #725,Arlington,VA,22203,256500,2,2.0,JEFFERSON RES,981,,1992,,261,376,Sold,,,https://www.redfin.com/VA/Arlington/900-N-Taylor-St-22203/unit-725/home/11246499,BRIGHT MLS,VAAR2042798,N,Y,38.8812752,-77.1130095
PAST SALE,May-31-2024,Condo/Co-op,1001 N Randolph St #611,Arlington,VA,22201,560000,2,2.0,EASTVIEW AT BALLSTON METRO,994,,2005,,563,858,Sold,,,https://www.redfin.com/VA/Arlington/1001-N-Randolph-St-22201/unit-611/home/11280544,BRIGHT MLS,VAAR2041978,N,Y,38.8829875,-77.1093249
PAST SALE,May-1-2024,Single Family Residential,6407 19th St N,Arlington,VA,22205,1930000,6,5.5,LINDSEY'S,4587,6669,2018,,421,50,Sold,,,https://www.redfin.com/VA/Arlington/6407-19th-St-N-22205/home/145871035,BRIGHT MLS,VAAR2039842,N,Y,38.8868512,-77.1551571
PAST SALE,December-11-2023,Townhouse,3008 Federal Hill Dr,Falls Church,VA,22044,708000,3,3.5,FEDERAL HILL,2508,1438,1980,,282,233,Sold,,,https://www.redfin.com/VA/Falls-Church/3008-Federal-Hill-Dr-22044/home/9568539,BRIGHT MLS,VAFX2151368,N,Y,38.8672073,-77.1397887
PAST SALE,April-22-2024,Townhouse,420 Thomas St N,Arlington,VA,22203,1200000,4,4.0,BUCKINGHAM COMMONS,2108,1742,2011,,569,176,Sold,,,https://www.redfin.com/VA/Arlington/420-N-Thomas-St-22203/home/23385500,BRIGHT MLS,VAAR2041018,N,Y,38.8741914,-77.109357
PAST SALE,May-30-2024,Condo/Co-op,1029 N Stuart St #106,Arlington,VA,22201,410000,1,1.0,SUMMERWALK I&II,782,,1985,,524,397,Sold,,,https://www.redfin.com/VA/Arlington/1029-N-Stuart-St-22201/unit-106/home/11244942,BRIGHT MLS,VAAR2043062,N,Y,38.8831127,-77.1115574
PAST SALE,April-18-2024,Townhouse,657 N Tazewell St,Arlington,VA,22203,1039000,3,4.5,TOWNES OF BALLSTON,1874,980,1988,,554,247,Sold,,,https://www.redfin.com/VA/Arlington/657-N-Tazewell-St-22203/home/11242065,BRIGHT MLS,VAAR2040912,N,Y,38.8784357,-77.1128409
PAST SALE,May-13-2024,Single Family Residential,313 N Kenmore St N,Arlington,VA,22201,1330000,4,2.0,ASHTON HEIGHTS,1674,9271,1925,,795,,Sold,,,https://www.redfin.com/VA/Arlington/313-N-Kenmore-St-22201/home/11256773,BRIGHT MLS,VAAR2041642,N,Y,38.8766415,-77.0979872
PAST SALE,February-21-2024,Townhouse,1120 N Taylor St #1,Arlington,VA,22201,654000,2,2.0,OLD BALLSTON TWN,1224,,1980,,534,274,Sold,,,https://www.redfin.com/VA/Arlington/1120-N-Taylor-St-22201/unit-1/home/11244369,BRIGHT MLS,VAAR2039112,N,Y,38.8846667,-77.1132679
PAST SALE,May-31-2024,Multi-Family (2-4 Unit),4510 Washington Blvd,Arlington,VA,22201,1610000,,,BALLSTON,2132,5050,1962,,755,,Sold,,,https://www.redfin.com/VA/Arlington/4510-Washington-Blvd-22201/home/11244194,BRIGHT MLS,VAAR2041672,N,Y,38.8852855,-77.1158105
PAST SALE,April-17-2024,Single Family Residential,2607 Key Blvd,Arlington,VA,22201,2050000,5,4.5,LYON VILLAGE,3290,7015,1940,,623,,Sold,,,https://www.redfin.com/VA/Arlington/2607-Key-Blvd-22201/home/11247724,BRIGHT MLS,VAAR2040974,N,Y,38.8926987,-77.0914979
PAST SALE,May-7-2024,Single Family Residential,5729 1st St S,Arlington,VA,22204,1250000,4,4.0,GLEN CARLIN,2400,6000,1951,,521,,Sold,,,https://www.redfin.com/VA/Arlington/5729-1st-St-S-22204/home/11258437,BRIGHT MLS,VAAR2039430,N,Y,38.8655377,-77.1270588
PAST SALE,January-29-2024,Single Family Residential,2812 1st Rd N,Arlington,VA,22201,1770000,5,4.0,CLARENDON,3520,6220,1934,,503,,Sold,,,https://www.redfin.com/VA/Arlington/2812-1st-Rd-N-22201/home/11255566,BRIGHT MLS,VAAR2037134,N,Y,38.8755471,-77.0894368
PAST SALE,April-30-2024,Townhouse,1007 N George Mason Dr,Arlington,VA,22205,810000,4,3.5,WESTWIND,2376,1630,1982,,341,215,Sold,,,https://www.redfin.com/VA/Arlington/1007-N-George-Mason-Dr-22205/home/11235857,BRIGHT MLS,VAAR2041104,N,Y,38.8828174,-77.1226196
PAST SALE,January-10-2024,Condo/Co-op,900 N Stafford St #2131,Arlington,VA,22203,715000,3,2.0,ALTA VISTA,1470,,1989,,486,989,Sold,,,https://www.redfin.com/VA/Arlington/900-N-Stafford-St-22203/unit-2131/home/11246164,BRIGHT MLS,VAAR2037966,N,Y,38.8817216,-77.1108967
PAST SALE,December-12-2023,Condo/Co-op,1021 N Garfield St #1014,Arlington,VA,22201,680000,1,1.0,CLARENDON 1021,957,,2005,,711,492,Sold,,,https://www.redfin.com/VA/Arlington/1021-N-Garfield-St-22201/unit-1014/home/11281506,BRIGHT MLS,VAAR2037944,N,Y,38.8855092,-77.0933367
PAST SALE,February-23-2024,Condo/Co-op,1024 N Utah St #815,Arlington,VA,22201,395000,1,1.0,WESTVIEW AT BALLSTON METRO,596,,2005,,663,537,Sold,,,https://www.redfin.com/VA/Arlington/1024-N-Utah-St-22201/unit-815/home/11280253,BRIGHT MLS,VAAR2038336,N,Y,38.8828413,-77.1140883
PAST SALE,March-29-2024,Single Family Residential,6317 19th St N,Arlington,VA,22205,1065000,3,2.0,OVER LEE KNOLLS,2123,5500,1940,,502,,Sold,,,https://www.redfin.com/VA/Arlington/6317-19th-St-N-22205/home/11239666,BRIGHT MLS,VAAR2040052,N,Y,38.8863752,-77.152044
PAST SALE,February-14-2024,Condo/Co-op,1020 N Highland St #1111,Arlington,VA,22201,540000,1,1.0,THE PHOENIX CONDOMINIUMS,847,,2007,,638,368,Sold,,,https://www.redfin.com/VA/Arlington/1020-N-Highland-St-22201/unit-1111/home/16897289,BRIGHT MLS,VAAR2039060,N,Y,38.8849496,-77.095252
PAST SALE,April-17-2024,Townhouse,1140 N Stuart St,Arlington,VA,22201,1850000,5,3.5,Arlington,3931,2145,2019,,471,192,Sold,,,https://www.redfin.com/VA/Arlington/1140-N-Stuart-St-22201/home/114033545,BRIGHT MLS,VAAR2041050,N,Y,38.8852843,-77.1123388
PAST SALE,April-5-2024,Condo/Co-op,851 N Glebe Rd #1910,Arlington,VA,22203,375000,0,1.0,CONTINENTAL,638,,2003,,588,329,Sold,,,https://www.redfin.com/VA/Arlington/851-N-Glebe-Rd-22203/unit-1910/home/11279505,BRIGHT MLS,VAAR2040542,N,Y,38.8812488,-77.1145593
PAST SALE,April-16-2024,Condo/Co-op,5051 7th Rd S #101,Arlington,VA,22204,310000,1,1.0,PARK SPRING,835,,1969,,371,452,Sold,,,https://www.redfin.com/VA/Arlington/5051-7th-Rd-S-22204/unit-101/home/11259517,BRIGHT MLS,VAAR2038928,N,Y,38.8605656,-77.1169826
PAST SALE,January-24-2024,Condo/Co-op,3601 5th St S #108,Arlington,VA,22204,193000,1,1.0,STRATTON HOUSE,490,,1958,,394,389,Sold,,,https://www.redfin.com/VA/Arlington/3601-5th-St-S-22204/unit-108/home/11260774,BRIGHT MLS,VAAR2037834,N,Y,38.8671892,-77.0967697
PAST SALE,April-2-2024,Single Family Residential,3300 6th St S,Arlington,VA,22204,755000,3,2.5,ARLINGTON HEIGHTS,912,5517,1938,,828,,Sold,,,https://www.redfin.com/VA/Arlington/3300-6th-St-S-22204/home/11263007,BRIGHT MLS,VAAR2041218,N,Y,38.8666554,-77.0934531
PAST SALE,December-21-2023,Single Family Residential,5108 9th St N,Arlington,VA,22205,815000,2,1.0,SUMMIT & VEITCH,1092,7260,1940,,746,,Sold,,,https://www.redfin.com/VA/Arlington/5108-9th-St-N-22205/home/11242042,BRIGHT MLS,VAAR2035126,N,Y,38.8797228,-77.1233705
PAST SALE,May-10-2024,Vacant Land,6335 Washington Blvd,Arlington,VA,22205,1015000,,,OVER LEE KNOLLS,,14615,,,,,Sold,,,https://www.redfin.com/VA/Arlington/6335-Washington-Blvd-22205/home/11239693,BRIGHT MLS,VAAR2041310,N,Y,38.8876949,-77.153437
PAST SALE,May-7-2024,Single Family Residential,6241 18th Rd N,Arlington,VA,22205,935000,4,3.0,OVER LEE KNOLLS,3071,6951,1951,,304,,Sold,,,https://www.redfin.com/VA/Arlington/6241-18th-Rd-N-22205/home/11239955,BRIGHT MLS,VAAR2041914,N,Y,38.8858786,-77.1508307
PAST SALE,April-30-2024,Single Family Residential,3215 1st St N,Arlington,VA,22201,2750000,6,5.0,ASHTON HEIGHTS,5216,7386,2016,,527,,Sold,,,https://www.redfin.com/VA/Arlington/3215-1st-St-N-22201/home/11256905,BRIGHT MLS,VAAR2038986,N,Y,38.8741532,-77.0950269
PAST SALE,March-15-2024,Condo/Co-op,4501 Arlington Blvd #722,Arlington,VA,22203,335000,2,1.0,THE CHATHAM,1083,,1965,,309,850,Sold,,,https://www.redfin.com/VA/Arlington/4501-Arlington-Blvd-22203/unit-722/home/11257788,BRIGHT MLS,VAAR2040056,N,Y,38.8692333,-77.1087161
PAST SALE,May-6-2024,Condo/Co-op,6001 Arlington Blvd #621,Falls Church,VA,22044,235000,2,1.0,WOODLAKE TOWERS CONDO,980,,1970,,240,726,Sold,,,https://www.redfin.com/VA/Falls-Church/6001-Arlington-Blvd-22044/unit-621/home/9568989,BRIGHT MLS,VAFX2167336,N,Y,38.8651765,-77.1375577
PAST SALE,May-8-2024,Single Family Residential,6305 Langston Blvd,Arlington,VA,22205,979000,5,2.5,ARLINGTON,1806,6519,1962,,542,,Sold,,,https://www.redfin.com/VA/Arlington/6305-Langston-Blvd-22205/home/11225996,BRIGHT MLS,VAAR2041216,N,Y,38.8922563,-77.153715
PAST SALE,February-27-2024,Single Family Residential,900 N Lebanon St,Arlington,VA,22205,900000,4,2.0,DOMINION HILLS,1650,6860,1947,,545,,Sold,,,https://www.redfin.com/VA/Arlington/900-N-Lebanon-St-22205/home/11240940,BRIGHT MLS,VAAR2036964,N,Y,38.8751048,-77.1419888
PAST SALE,April-9-2024,Condo/Co-op,851 N Glebe Rd #416,Arlington,VA,22203,400000,1,1.0,BALLSTON,654,,2003,,612,381,Sold,,,https://www.redfin.com/VA/Arlington/851-N-Glebe-Rd-22203/unit-416/home/11279605,BRIGHT MLS,VAAR2040178,N,Y,38.8812488,-77.1145593
PAST SALE,March-8-2024,Condo/Co-op,1000 N Randolph St #703,Arlington,VA,22201,715000,2,2.0,BERKELEY,1325,,2004,,540,923,Sold,,,https://www.redfin.com/VA/Arlington/1000-N-Randolph-St-22201/unit-703/home/11279249,BRIGHT MLS,VAAR2039790,N,Y,38.8827696,-77.1097108
PAST SALE,March-18-2024,Townhouse,744 N Vermont St,Arlington,VA,22203,799990,3,3.0,BALLSTON MEWS I,1327,,1982,,603,440,Sold,,,https://www.redfin.com/VA/Arlington/744-N-Vermont-St-22203/home/190508601,BRIGHT MLS,VAAR2039316,N,Y,38.878953,-77.115172
PAST SALE,January-12-2024,Townhouse,1204 N Danville St,Arlington,VA,22201,1580000,3,3.5,CLARENDON CENTER,2248,918,2001,,703,175,Sold,,,https://www.redfin.com/VA/Arlington/1204-N-Danville-St-22201/home/11278897,BRIGHT MLS,VAAR2036636,N,Y,38.887085,-77.0906908
PAST SALE,March-7-2024,Single Family Residential,15 Aberdeen St S,Arlington,VA,22204,829000,3,2.0,BARCROFT,1490,11515,1940,,556,,Sold,,,https://www.redfin.com/VA/Arlington/15-S-Aberdeen-St-22204/home/11258408,BRIGHT MLS,VAAR2039176,N,Y,38.8663431,-77.1143189
PAST SALE,March-20-2024,Condo/Co-op,4141 N Henderson Rd #913,Arlington,VA,22203,365000,1,1.0,HYDE PARK,916,,1973,,398,814,Sold,,,https://www.redfin.com/VA/Arlington/4141-N-Henderson-Rd-22203/unit-913/home/11257389,BRIGHT MLS,VAAR2039654,N,Y,38.8758024,-77.1094008
PAST SALE,February-16-2024,Condo/Co-op,900 N Stafford St #2620,Arlington,VA,22203,1025000,4,3.0,ALTA VISTA,2370,,1989,,432,1676,Sold,,,https://www.redfin.com/VA/Arlington/900-N-Stafford-St-22203/unit-2620/home/11246218,BRIGHT MLS,VAAR2039166,N,Y,38.8817216,-77.1108967
PAST SALE,,Condo/Co-op,900 N Taylor St #2120,Arlington,VA,22203,205750,2,2.0,,1044,,1992,,197,,,,,https://www.redfin.com/VA/Arlington/900-N-Taylor-St-22203/unit-2120/home/11246755,,,N,Y,38.8812752,-77.1130095
PAST SALE,December-15-2023,Condo/Co-op,1112-A N Taylor St Unit 1112A,Arlington,VA,22201,650000,2,2.0,OLD BALLSTON TWN,1235,,1980,,526,274,Sold,,,https://www.redfin.com/VA/Arlington/1112-N-Taylor-St-22201/unit-1112A/home/11244357,BRIGHT MLS,VAAR2037146,N,Y,38.8844961,-77.113178
PAST SALE,April-19-2024,Condo/Co-op,3701 5th St S #505,Arlington,VA,22204,230000,1,1.0,STRATTON HOUSE,720,,1958,,319,761,Sold,,,https://www.redfin.com/VA/Arlington/3701-5th-St-S-22204/unit-505/home/11260882,BRIGHT MLS,VAAR2038946,N,Y,38.8668515,-77.0978596
PAST SALE,February-5-2024,Condo/Co-op,820 N Pollard St #904,Arlington,VA,22203,618000,2,1.0,BALLSTON,928,,2006,,666,466,Sold,,,https://www.redfin.com/VA/Arlington/820-N-Pollard-St-22203/unit-904/home/12040974,BRIGHT MLS,VAAR2038614,N,Y,38.880375,-77.1067575
PAST SALE,December-22-2023,Single Family Residential,15 N Fenwick St,Arlington,VA,22201,1195000,5,2.5,ASHTON HEIGHTS,2453,6605,1947,,487,,Sold,,,https://www.redfin.com/VA/Arlington/15-N-Fenwick-St-22201/home/11255973,BRIGHT MLS,VAAR2036782,N,Y,38.873987,-77.0899571
PAST SALE,January-29-2024,Vacant Land,3rd St S,Arlington,VA,22204,250000,,,BARCROFT,,4200,,,,,Sold,,,https://www.redfin.com/VA/Arlington/3rd-St-S-22204/home/22983008,BRIGHT MLS,VAAR2033678,N,Y,38.864345,-77.111523
PAST SALE,December-29-2023,Single Family Residential,1507 N Hartford St,Arlington,VA,22201,2540000,5,4.5,LYON VILLAGE,3973,7720,2010,,639,,Sold,,,https://www.redfin.com/VA/Arlington/1507-N-Hartford-St-22201/home/11248238,BRIGHT MLS,VAAR2037572,N,Y,38.8898307,-77.0968898
PAST SALE,December-22-2023,Single Family Residential,3110 1st St N,Arlington,VA,22201,1450000,4,3.5,ASHTON HEIGHTS,2876,6279,1951,,504,,Sold,,,https://www.redfin.com/VA/Arlington/3110-1st-St-N-22201/home/11256950,BRIGHT MLS,VAAR2036778,N,Y,38.874237,-77.0931486
PAST SALE,January-22-2024,Vacant Land,4628 3rd St S,Arlington,VA,22204,890000,,,BARCROFT,,12600,,,,,Sold,,,https://www.redfin.com/VA/Arlington/4628-3rd-St-S-22204/home/11260643,BRIGHT MLS,VAAR2033668,N,Y,38.8643114,-77.1112338
PAST SALE,March-19-2024,Condo/Co-op,851 N Glebe Rd #914,Arlington,VA,22203,424000,1,1.0,CONTINENTAL,688,,2003,,616,419,Sold,,,https://www.redfin.com/VA/Arlington/851-N-Glebe-Rd-22203/unit-914/home/11279571,BRIGHT MLS,VAAR2040016,N,Y,38.8812488,-77.1145593
PAST SALE,April-1-2024,Vacant Land,3704 7th St S,Arlington,VA,22204,850000,,,ALCOVA HEIGHTS,,8147,,,,,Sold,,,https://www.redfin.com/VA/Arlington/3704-7th-St-S-22204/home/11261175,BRIGHT MLS,VAAR2039906,N,Y,38.8644418,-77.0968418
PAST SALE,February-27-2024,Condo/Co-op,708 S Arlington Mill Dr #14304,Arlington,VA,22204,251000,1,1.0,PARK GLEN,539,,1947,,466,371,Sold,,,https://www.redfin.com/VA/Arlington/708-S-Arlington-Mill-Dr-22204/unit-14304/home/11259407,BRIGHT MLS,VAAR2038950,N,Y,38.8603557,-77.1151293
PAST SALE,December-21-2023,Condo/Co-op,1001 N Randolph St #822,Arlington,VA,22201,400000,1,1.0,EASTVIEW AT BALLSTON METRO,777,,2005,,515,485,Sold,,,https://www.redfin.com/VA/Arlington/1001-N-Randolph-St-22201/unit-822/home/11280479,BRIGHT MLS,VAAR2037186,N,Y,38.8829875,-77.1093249
PAST SALE,May-24-2024,Condo/Co-op,1021 N Garfield #612,Arlington,VA,22201,515900,1,1.0,CLARENDON 1021,745,,2005,,692,466,Sold,,,https://www.redfin.com/VA/Arlington/1021-N-Garfield-St-22201/unit-612/home/11281364,BRIGHT MLS,VAAR2040224,N,Y,38.8855092,-77.0933367
PAST SALE,April-30-2024,Single Family Residential,1615 N Wakefield St,Arlington,VA,22207,1115000,3,3.0,WILLET HEIGHTS,1300,8042,1950,,858,,Sold,,,https://www.redfin.com/VA/Arlington/1615-N-Wakefield-St-22207/home/11235317,BRIGHT MLS,VAAR2039760,N,Y,38.891101,-77.1176731
PAST SALE,March-29-2024,Condo/Co-op,1045 N Utah St #604,Arlington,VA,22201,385000,1,1.0,WINDSOR PLAZA,625,,1994,,616,578,Sold,,,https://www.redfin.com/VA/Arlington/1045-N-Utah-St-22201/unit-604/home/146886987,BRIGHT MLS,VAAR2039198,N,Y,38.8832871,-77.1135655
PAST SALE,May-31-2024,Single Family Residential,730 N Buchanan St,Arlington,VA,22203,1060000,4,3.0,BRANDON VILLAGE,2690,6785,1941,,394,,Sold,,,https://www.redfin.com/VA/Arlington/730-N-Buchanan-St-22203/home/11242418,BRIGHT MLS,VAAR2042754,N,Y,38.8776226,-77.1193931
PAST SALE,February-15-2024,Single Family Residential,1801 N Quesada St N,Arlington,VA,22205,1325000,4,3.5,"FOSTORIA,HIGHLAND PARK",3138,14472,1983,,422,,Sold,,,https://www.redfin.com/VA/Arlington/1801-N-Quesada-St-22205/home/11239654,BRIGHT MLS,VAAR2038284,N,Y,38.8848336,-77.1514632
PAST SALE,May-10-2024,Single Family Residential,919 N Edgewood St,Arlington,VA,22201,2975000,5,7.0,CLARENDON,6732,9027,2023,,442,,Sold,,,https://www.redfin.com/VA/Arlington/919-N-Edgewood-St-22201/home/11254988,BRIGHT MLS,VAAR2041546,N,Y,38.8837062,-77.0914979
PAST SALE,April-24-2024,Townhouse,1013 N Kensington St,Arlington,VA,22205,1080000,4,4.5,WESTOVER,2240,1408,2015,,482,175,Sold,,,https://www.redfin.com/VA/Arlington/1013-N-Kensington-St-22205/home/101388422,BRIGHT MLS,VAAR2039690,N,Y,38.8804542,-77.1327081
