SALE TYPE,SOLD DATE,PROPERTY TYPE,ADDRESS,CITY,STATE OR PROVINCE,ZIP OR POSTAL CODE,PRICE,BEDS,BATHS,LOCATION,SQUARE FEET,LOT SIZE,YEAR BUILT,DAYS ON MARKET,$/SQUARE FEET,HOA/MONTH,STATUS,NEXT OPEN HOUSE START TIME,NEXT OPEN HOUSE END TIME,URL (SEE https://www.redfin.com/buy-a-home/comparative-market-analysis FOR INFO ON PRICING),SOURCE,MLS#,FAVORITE,INTERESTED,LATITUDE,LONGITUDE
"In accordance with local MLS rules, some MLS listings are not included in the download"
PAST SALE,April-3-2024,Condo/Co-op,2000 Clarendon Blvd #1006,Arlington,VA,22201,566000,1,1.0,CLARENDON,678,,2021,,835,405,Sold,,,https://www.redfin.com/VA/Arlington/2000-Clarendon-Blvd-22201/unit-1006/home/190047864,BRIGHT MLS,VAAR2040842,N,Y,38.8914802,-77.0820559
PAST SALE,December-21-2023,Condo/Co-op,4401 Cherry Hill Rd #58,Arlington,VA,22207,270000,1,1.0,LORCOM HOUSE,795,,1965,,340,621,Sold,,,https://www.redfin.com/VA/Arlington/4401-Cherry-Hill-Rd-22207/unit-58/home/11234293,BRIGHT MLS,VAAR2038098,N,Y,38.8986043,-77.1170477
PAST SALE,June-3-2024,Condo/Co-op,1121 Arlington Blvd #331,Arlington,VA,22209,259900,1,1.0,RIVER PLACE,726,,1955,,358,692,Sold,,,https://www.redfin.com/VA/Arlington/1121-Arlington-Blvd-22209/unit-331/home/11252550,BRIGHT MLS,VAAR2042200,N,Y,38.8935985,-77.0699826
PAST SALE,December-19-2023,Condo/Co-op,1633 N Colonial Ter #409,Arlington,VA,22209,649900,2,2.5,TERRACE LOFTS,1242,,2004,,523,501,Sold,,,https://www.redfin.com/VA/Arlington/1633-N-Colonial-Ter-22209/unit-409/home/11279860,BRIGHT MLS,VAAR2037140,N,Y,38.8977495,-77.0779178
PAST SALE,January-29-2024,Condo/Co-op,1911 Key Blvd #564,Arlington,VA,22201,319900,1,1.0,COLONIAL VILLAGE,608,,1940,,526,378,Sold,,,https://www.redfin.com/VA/Arlington/1911-Key-Blvd-22201/unit-564/home/81853410,BRIGHT MLS,VAAR2036520,N,Y,38.894751,-77.083634
PAST SALE,February-9-2024,Condo/Co-op,1220 N Fillmore St #605,Arlington,VA,22201,492000,1,1.0,STATION SQUARE,669,,2006,,735,423,Sold,,,https://www.redfin.com/VA/Arlington/1220-N-Fillmore-St-22201/unit-605/home/12041602,BRIGHT MLS,VAAR2036600,N,Y,38.8871875,-77.0932213
PAST SALE,May-1-2024,Condo/Co-op,1301 N Courthouse Rd N #1103,Arlington,VA,22201,515000,2,2.0,WOODBURY HEIGHTS,864,,1983,,596,718,Sold,,,https://www.redfin.com/VA/Arlington/1301-N-Courthouse-Rd-22201/unit-1103/home/11251370,BRIGHT MLS,VAAR2038178,N,Y,38.8884978,-77.0829361
PAST SALE,December-26-2023,Condo/Co-op,1530 Key Blvd #609,Arlington,VA,22209,415000,1,1.0,ATRIUM CONDO,765,,1986,,542,648,Sold,,,https://www.redfin.com/VA/Arlington/1530-Key-Blvd-22209/unit-609/home/11250489,BRIGHT MLS,VAAR2033808,N,Y,38.8958315,-77.0759458
PAST SALE,February-29-2024,Condo/Co-op,1111 19th St N #1508,Arlington,VA,22209,525000,1,1.0,THE WATERVIEW,687,,2008,,764,509,Sold,,,https://www.redfin.com/VA/Arlington/1111-19th-St-N-22209/unit-1508/home/16898076,BRIGHT MLS,VAAR2040694,N,Y,38.8972352,-77.0698916
PAST SALE,January-31-2024,Condo/Co-op,2001 15th St N #1412,Arlington,VA,22201,998000,2,2.5,ARLINGTON,1635,,2006,,610,950,Sold,,,https://www.redfin.com/VA/Arlington/2001-15th-St-N-22201/unit-1412/home/12041373,BRIGHT MLS,VAAR2039354,N,Y,38.8912215,-77.081359
PAST SALE,,Single Family Residential,1225 N Lincoln St,Arlington,VA,22201,1575000,5,4.0,,2490,5000,1977,,633,,,,,https://www.redfin.com/VA/Arlington/1225-N-Lincoln-St-22201/home/11248565,,,N,Y,38.8872229,-77.1035467
PAST SALE,March-6-2024,Townhouse,1516 N Scott St Unit TH-5,Arlington,VA,22209,702500,3,1.5,ODYSSEY,1412,,2006,,498,914,Sold,,,https://www.redfin.com/VA/Arlington/1516-N-Scott-St-22209/unit-TH-5/home/22983512,BRIGHT MLS,VAAR2039982,N,Y,38.8911444,-77.0810432
PAST SALE,March-1-2024,Condo/Co-op,2001 15th St N #1414,Arlington,VA,22201,850000,2,2.0,COURTHOUSE,1125,,2006,,756,753,Sold,,,https://www.redfin.com/VA/Arlington/2001-15th-St-N-22201/unit-1414/home/12041375,BRIGHT MLS,VAAR2040220,N,Y,38.8912215,-77.081359
PAST SALE,May-7-2024,Condo/Co-op,1781 Pierce St N #1201,Arlington,VA,22201,2100000,3,2.5,ROSSLYN,2411,,2021,,871,2180,Sold,,,https://www.redfin.com/VA/Arlington/1781-N-Pierce-St-22209/unit-1201/home/184744189,BRIGHT MLS,VAAR2042454,N,Y,38.8952355,-77.0761903
PAST SALE,,Townhouse,2171 N Pierce St,Arlington,VA,22209,1200000,,3.5,,1770,1316,1995,,678,,,,,https://www.redfin.com/VA/Arlington/2171-N-Pierce-St-22209/home/11248791,,,N,Y,38.8995325,-77.0769849
PAST SALE,March-19-2024,Condo/Co-op,1111 19th St N #2806,Arlington,VA,22209,1525000,2,2.5,ROSSLYN,1523,,2008,,1001,1731,Sold,,,https://www.redfin.com/VA/Arlington/1111-19th-St-N-22209/unit-2806/home/16898054,BRIGHT MLS,VAAR2041404,N,Y,38.8972352,-77.0698916
PAST SALE,January-9-2024,Condo/Co-op,1610 N Queen St #255,Arlington,VA,22209,1035000,2,2.0,GASLIGHT SQUARE,1337,,2013,,774,599,Sold,,,https://www.redfin.com/VA/Arlington/1610-N-Queen-St-22209/unit-255/home/56337557,BRIGHT MLS,VAAR2039124,N,Y,38.8925594,-77.0778967
PAST SALE,,Single Family Residential,2120 N Troy St,Arlington,VA,22201,1385000,4,3.0,,1748,6072,1946,,792,,,,,https://www.redfin.com/VA/Arlington/2120-N-Troy-St-22201/home/11248620,,,N,Y,38.8990014,-77.0842453
PAST SALE,March-28-2024,Condo/Co-op,1600 Clarendon Blvd Unit W405,Arlington,VA,22209,1305000,2,2.0,Arlington,1768,,2007,,738,1167,Sold,,,https://www.redfin.com/VA/Arlington/1600-Clarendon-Blvd-22209/unit-W405/home/190363155,BRIGHT MLS,VAAR2041970,N,Y,38.8931186,-77.077007
PAST SALE,May-1-2024,Condo/Co-op,1276 N Wayne St #700,Arlington,VA,22201,760000,2,2.0,WILLIAMSBURG,1108,,1992,,686,647,Sold,,,https://www.redfin.com/VA/Arlington/1276-N-Wayne-St-22201/unit-700/home/11254211,BRIGHT MLS,VAAR2043344,N,Y,38.8880275,-77.0867979
PAST SALE,February-29-2024,Single Family Residential,3501 17th St N,Arlington,VA,22207,2550000,5,5.0,CHERRYDALE,4769,6926,2024,,535,,Sold,,,https://www.redfin.com/VA/Arlington/3501-17th-St-N-22207/home/11279974,BRIGHT MLS,VAAR2040726,N,Y,38.892231,-77.1034567
PAST SALE,,Single Family Residential,1706 N Nelson St,Arlington,VA,22207,2369172,,1.0,,832,6348,1926,,2848,,,,,https://www.redfin.com/VA/Arlington/1706-N-Nelson-St-22207/home/11234003,,,N,Y,38.8925079,-77.10537
PAST SALE,,Condo/Co-op,1200 N Nash St #1142,Arlington,VA,22209,775000,1,1.0,,1065,,1980,,728,,,,,https://www.redfin.com/VA/Arlington/1200-N-Nash-St-22209/unit-1142/home/11252232,,,N,Y,38.889265,-77.0728605
PAST SALE,December-9-2023,Single Family Residential,4534 19th St N,Arlington,VA,22207,1600000,4,3.5,WILLET HEIGHTS,3120,9477,1937,,513,,Sold,,,https://www.redfin.com/VA/Arlington/4534-19th-St-N-22207/home/11235236,BRIGHT MLS,VAAR2038458,N,Y,38.8933178,-77.1182013
PAST SALE,May-3-2024,Single Family Residential,4224 23rd St N,Arlington,VA,22207,2100000,5,4.5,LORCOM GROVE,5694,6686,2007,,369,,Sold,,,https://www.redfin.com/VA/Arlington/4224-23rd-St-N-22207/home/12042946,BRIGHT MLS,VAAR2041484,N,Y,38.9006931,-77.1134365
PAST SALE,,Single Family Residential,1609 N Jackson St,Arlington,VA,22201,1700000,5,4.0,,3200,6575,1939,,531,,,,,https://www.redfin.com/VA/Arlington/1609-N-Jackson-St-22201/home/11247940,,,N,Y,38.890599519332596,-77.09948353809898
PAST SALE,March-29-2024,Condo/Co-op,2330 14th St N #401,Arlington,VA,22201,752900,3,2.0,COURTHOUSE HILL,1370,,1996,,550,839,Sold,,,https://www.redfin.com/VA/Arlington/2330-14th-St-N-22201/unit-401/home/11254449,BRIGHT MLS,VAAR2041832,N,Y,38.8890491,-77.0871716
PAST SALE,January-2-2024,Single Family Residential,4107 27th Rd N,Arlington,VA,22207,1225000,5,3.0,LORCOM GROVE,2869,13795,1963,,427,,Sold,,,https://www.redfin.com/VA/Arlington/4107-27th-Rd-N-22207/home/11231966,BRIGHT MLS,VAAR2034174,N,Y,38.9093241,-77.1128321
PAST SALE,,Condo/Co-op,1915 N Adams St Unit C,Arlington,VA,22201,795000,2,2.0,,1728,,1980,,460,,,,,https://www.redfin.com/VA/Arlington/1915-N-Adams-St-22201/unit-C/home/11246871,,,N,Y,38.8959965,-77.088508
PAST SALE,,Single Family Residential,1404 N Hudson St,Arlington,VA,22201,1600000,3,2.5,,2229,7475,1937,,718,,,,,https://www.redfin.com/VA/Arlington/1404-N-Hudson-St-22201/home/11248311,,,N,Y,38.8883887,-77.0985793
PAST SALE,,Single Family Residential,3161 20th St N,Arlington,VA,22201,1862500,5,3.5,,2481,8225,1937,,751,,,,,https://www.redfin.com/VA/Arlington/3161-20th-St-N-22201/home/11247478,,,N,Y,38.8940801,-77.096864
PAST SALE,May-14-2024,Condo/Co-op,1600 N Oak St #1602,Arlington,VA,22209,570000,2,2.0,BELVEDERE,1150,,1986,,496,770,Sold,,,https://www.redfin.com/VA/Arlington/1600-N-Oak-St-22209/unit-1602/home/11250897,BRIGHT MLS,VAAR2043876,N,Y,38.8928888,-77.0732022
PAST SALE,May-1-2024,Condo/Co-op,1021 N Garfield St #130,Arlington,VA,22201,530000,1,1.0,CLARENDON 1021,873,,2005,,607,542,Sold,,,https://www.redfin.com/VA/Arlington/1021-N-Garfield-St-22201/unit-130/home/11281143,BRIGHT MLS,VAAR2040272,N,Y,38.8855092,-77.0933367
PAST SALE,May-10-2024,Townhouse,1047 Edgewood St,Arlington,VA,22201,1626106,3,3.5,CLARENDON,2064,1260,2024,,788,75,Sold,,,https://www.redfin.com/VA/Arlington/1047-N-Edgewood-St-22201/home/11254920,BRIGHT MLS,VAAR2038272,N,Y,38.8862205,-77.0917227
PAST SALE,,Condo/Co-op,1600 Clarendon Blvd #405,Arlington,VA,22209,1305000,2,2.0,,1768,,2007,,738,,,,,https://www.redfin.com/VA/Arlington/1600-Clarendon-Blvd-22209/unit-405/home/16898115,,,N,Y,38.8931186,-77.077007
PAST SALE,December-29-2023,Condo/Co-op,1401 N Oak St #904,Arlington,VA,22209,2200000,3,2.5,THE WESLIE,2154,,1981,,1021,1534,Sold,,,https://www.redfin.com/VA/Arlington/1401-N-Oak-St-22209/unit-904/home/11251794,BRIGHT MLS,VAAR2038948,N,Y,38.8904482,-77.0729957
PAST SALE,April-30-2024,Single Family Residential,3154 N Quincy St,Arlington,VA,22207,1250000,3,2.0,BELLEVUE FOREST,1566,9865,1949,,798,,Sold,,,https://www.redfin.com/VA/Arlington/3154-N-Quincy-St-22207/home/11230842,BRIGHT MLS,VAAR2043202,N,Y,38.9148716,-77.1174821
PAST SALE,May-10-2024,Townhouse,2750 N 11th,Arlington,VA,22201,1585000,3,3.5,CLARENDON,2064,1035,2024,,768,75,Sold,,,https://www.redfin.com/VA/Arlington/2750-11th-St-N-22201/home/188753651,BRIGHT MLS,VAAR2038250,N,Y,38.8863929,-77.0909768
PAST SALE,April-5-2024,Single Family Residential,2027 N Utah St,Arlington,VA,22207,1300000,4,3.5,WILLET HEIGHTS,1594,6000,1939,,816,,Sold,,,https://www.redfin.com/VA/Arlington/2027-N-Utah-St-22207/home/11233521,BRIGHT MLS,VAAR2040856,N,Y,38.8959165,-77.1141557
PAST SALE,January-12-2024,Condo/Co-op,1011 Arlington Blvd #831,Arlington,VA,22209,265000,1,1.0,RIVER PLACE,716,,1955,,370,,Sold,,,https://www.redfin.com/VA/Arlington/1011-Arlington-Blvd-22209/unit-831/home/11253545,BRIGHT MLS,VAAR2040102,N,Y,38.8921028,-77.0688111
PAST SALE,January-31-2024,Townhouse,2805 11th St N,Arlington,VA,22201,1115000,3,2.5,CLARENDON CENTER,1902,720,2002,,586,140,Sold,,,https://www.redfin.com/VA/Arlington/2805-11th-St-N-22201/home/11278873,BRIGHT MLS,VAAR2040148,N,Y,38.8867856,-77.0919978
PAST SALE,,Townhouse,1505 N Colonial Ter Unit D,Arlington,VA,22209,1350000,2,3.0,,1656,1062,1993,,815,,,,,https://www.redfin.com/VA/Arlington/1505-N-Colonial-Ter-22209/unit-D/home/11249200,,,N,Y,38.8967102,-77.0751302
PAST SALE,April-30-2024,Single Family Residential,1301 N Utah St,Arlington,VA,22201,1125000,4,1.0,BALLSTON,1984,9525,1925,,567,,Sold,,,https://www.redfin.com/VA/Arlington/1301-N-Utah-St-22201/home/11244045,BRIGHT MLS,VAAR2043200,N,Y,38.8874123,-77.1140858
PAST SALE,April-12-2024,Single Family Residential,1808 N Adams St,Arlington,VA,22201,1351100,4,2.0,LYON VILLAGE,1707,8250,1925,,792,,Sold,,,https://www.redfin.com/VA/Arlington/1808-N-Adams-St-22201/home/11247628,BRIGHT MLS,VAAR2041114,N,Y,38.8944707,-77.0888914
PAST SALE,March-25-2024,Townhouse,1500 N Scott St Unit TH-1,Arlington,VA,22209,741250,3,1.5,ODYSSEY,1435,,2006,,517,947,Sold,,,https://www.redfin.com/VA/Arlington/1500-N-Scott-St-22209/unit-TH1/home/22982381,BRIGHT MLS,VAAR2040544,N,Y,38.8909062,-77.0809934
PAST SALE,December-11-2023,Condo/Co-op,2220 Fairfax Dr Ph 07,Arlington,VA,22201,650000,2,2.0,THE PARK AT COURTHOUSE,1174,,2007,,554,595,Sold,,,https://www.redfin.com/VA/Arlington/2220-Fairfax-Dr-22201/unit-7/home/16897879,BRIGHT MLS,VAAR2037778,N,Y,38.8863419,-77.0853443
PAST SALE,May-7-2024,Single Family Residential,4243 Vacation Ln,Arlington,VA,22207,1650000,3,3.0,LORCOM GROVE,2796,9829,1939,,590,,Sold,,,https://www.redfin.com/VA/Arlington/4243-Vacation-Ln-22207/home/11232535,BRIGHT MLS,VAAR2042678,N,Y,38.9025999,-77.1134185
PAST SALE,April-2-2024,Condo/Co-op,1021 N Garfield St #513,Arlington,VA,22201,540400,1,1.0,CLARENDON 1021,839,,2005,,644,466,Sold,,,https://www.redfin.com/VA/Arlington/1021-N-Garfield-St-22201/unit-513/home/11281317,BRIGHT MLS,VAAR2040642,N,Y,38.8855092,-77.0933367
PAST SALE,February-12-2024,Townhouse,2104 N Tazewell Ct,Arlington,VA,22207,900000,3,3.5,WAVERLEY HILLS,1944,864,1991,,463,140,Sold,,,https://www.redfin.com/VA/Arlington/2104-N-Tazewell-Ct-22207/home/11235033,BRIGHT MLS,VAAR2039282,N,Y,38.8964072,-77.1152233
PAST SALE,May-24-2024,Condo/Co-op,1913 Key Blvd #11569,Arlington,VA,22201,315000,1,1.0,COLONIAL VILLAGE,564,,1940,,559,361,Sold,,,https://www.redfin.com/VA/Arlington/1913-Key-Blvd-22201/unit-11569/home/11249702,BRIGHT MLS,VAAR2043696,N,Y,38.894594,-77.0838133
PAST SALE,May-15-2024,Single Family Residential,1423 N Highland St,Arlington,VA,22201,1995000,4,3.5,LYON VILLAGE,3156,5550,1936,,632,,Sold,,,https://www.redfin.com/VA/Arlington/1423-N-Highland-St-22201/home/11248202,BRIGHT MLS,VAAR2041904,N,Y,38.8898971,-77.0951261
PAST SALE,March-27-2024,Single Family Residential,4305 Washington Blvd,Arlington,VA,22201,825000,3,2.0,BALLSTON,2000,4238,1952,,413,,Sold,,,https://www.redfin.com/VA/Arlington/4305-Washington-Blvd-22201/home/11244075,BRIGHT MLS,VAAR2040616,N,Y,38.8857596,-77.1134365
PAST SALE,May-2-2024,Condo/Co-op,1201 N Garfield St #405,Arlington,VA,22201,785000,2,2.0,STATION SQUARE,1006,,2006,,780,633,Sold,,,https://www.redfin.com/VA/Arlington/1201-N-Garfield-St-22201/unit-405/home/12041457,BRIGHT MLS,VAAR2041750,N,Y,38.8866753,-77.0934537
PAST SALE,March-1-2024,Townhouse,2620 Fairfax Dr,Arlington,VA,22201,1400000,4,3.5,VILLAGE AT COURTLANDS,2295,1373,1989,,610,50,Sold,,,https://www.redfin.com/VA/Arlington/2620-Fairfax-Dr-22201/home/11254766,BRIGHT MLS,VAAR2039222,N,Y,38.8882697,-77.0898121
PAST SALE,April-26-2024,Condo/Co-op,1221 N Quinn St N #11,Arlington,VA,22209,434000,2,1.0,Arlington,859,,1963,,505,479,Sold,,,https://www.redfin.com/VA/Arlington/1221-N-Quinn-St-22209/unit-11/home/16897603,BRIGHT MLS,VAAR2042566,N,Y,38.8882628,-77.0778304
PAST SALE,March-21-2024,Single Family Residential,4615 22nd St N,Arlington,VA,22207,1200000,4,3.0,LEE HEIGHTS,2380,5000,1941,,504,,Sold,,,https://www.redfin.com/VA/Arlington/4615-22nd-St-N-22207/home/11232688,BRIGHT MLS,VAAR2040494,N,Y,38.8994932,-77.1207655
PAST SALE,May-31-2024,Condo/Co-op,1600 N Oak St N #1612,Arlington,VA,22209,930000,2,2.0,BELVEDERE,1420,,1986,,655,1011,Sold,,,https://www.redfin.com/VA/Arlington/1600-N-Oak-St-22209/unit-1612/home/11250906,BRIGHT MLS,VAAR2042550,N,Y,38.8928888,-77.0732022
PAST SALE,April-1-2024,Condo/Co-op,1201 N Nash St #302,Arlington,VA,22209,1550000,2,2.5,MEMORIAL OVERLOOK,2068,,2002,,750,1924,Sold,,,https://www.redfin.com/VA/Arlington/1201-N-Nash-St-22209/unit-302/home/11279036,BRIGHT MLS,VAAR2041152,N,Y,38.8884912,-77.07184351
PAST SALE,May-28-2024,Single Family Residential,2902 24th St N,Arlington,VA,22207,1200000,3,2.5,DOVER BALMORAL RIVERWOOD,2161,4325,1931,,555,,Sold,,,https://www.redfin.com/VA/Arlington/2902-24th-St-N-22207/home/11231573,BRIGHT MLS,VAAR2042102,N,Y,38.9010773,-77.0975475
PAST SALE,March-27-2024,Condo/Co-op,1530 Key Blvd #828,Arlington,VA,22209,1145000,2,2.0,ATRIUM CONDO,1640,,1986,,698,1375,Sold,,,https://www.redfin.com/VA/Arlington/1530-Key-Blvd-22209/unit-828/home/11250558,BRIGHT MLS,VAAR2040396,N,Y,38.8958315,-77.0759458
PAST SALE,May-24-2024,Townhouse,1332 N Danville St,Arlington,VA,22201,1208000,3,2.5,CLARENDON CENTER,1612,720,2001,,749,142,Sold,,,https://www.redfin.com/VA/Arlington/1332-N-Danville-St-22201/home/11278923,BRIGHT MLS,VAAR2042578,N,Y,38.88819,-77.090843
PAST SALE,May-8-2024,Condo/Co-op,1781 N Pierce St #401,Arlington,VA,22209,1435000,2,2.0,ROSSLYN,1635,,2022,,878,1440,Sold,,,https://www.redfin.com/VA/Arlington/1781-N-Pierce-St-22209/unit-401/home/190362351,BRIGHT MLS,VAAR2041964,N,Y,38.8952355,-77.0761903
PAST SALE,April-9-2024,Condo/Co-op,1021 N Garfield St #818,Arlington,VA,22201,775000,2,2.0,CLARENDON,1104,,2005,,702,647,Sold,,,https://www.redfin.com/VA/Arlington/1021-N-Garfield-St-22201/unit-818/home/11281456,BRIGHT MLS,VAAR2041492,N,Y,38.8855092,-77.0933367
PAST SALE,May-31-2024,Condo/Co-op,1021 N Garfield St #417,Arlington,VA,22201,595000,1,1.0,CLARENDON 1021,873,,2005,,682,510,Sold,,,https://www.redfin.com/VA/Arlington/1021-N-Garfield-St-22201/unit-417/home/11281273,BRIGHT MLS,VAAR2042848,N,Y,38.8855092,-77.0933367
PAST SALE,April-3-2024,Condo/Co-op,1021 Arlington Blvd #828,Arlington,VA,22209,169000,1,1.0,RIVER PLACE,514,,1955,,329,470,Sold,,,https://www.redfin.com/VA/Arlington/1021-Arlington-Blvd-22209/unit-828/home/11253954,BRIGHT MLS,VAAR2040850,N,Y,38.8930252,-77.0689736
PAST SALE,February-4-2024,Condo/Co-op,1758 N Troy St N #669,Arlington,VA,22201,33388,1,1.0,COLONIAL VILLAGE,630,,1938,,53,1262,Sold,,,https://www.redfin.com/VA/Arlington/1758-N-Troy-St-22201/unit-669/home/11250077,BRIGHT MLS,VAAR2039516,N,Y,38.893145,-77.0842438
PAST SALE,January-10-2024,Condo/Co-op,3515 Washington Blvd #217,Arlington,VA,22201,275000,1,1.0,WENTWORTH PLACE,850,,1960,,324,574,Sold,,,https://www.redfin.com/VA/Arlington/3515-Washington-Blvd-22201/unit-217/home/11248503,BRIGHT MLS,VAAR2038268,N,Y,38.8864178,-77.1047829
PAST SALE,May-21-2024,Condo/Co-op,1774 N Troy St N,Arlington,VA,22201,320000,1,1.0,COLONIAL VILLAGE,690,,1940,,464,336,Sold,,,https://www.redfin.com/VA/Arlington/1774-N-Troy-St-22201/home/190669804,BRIGHT MLS,VAAR2043160,N,Y,38.8939598,-77.0837645
PAST SALE,April-5-2024,Condo/Co-op,4401 Cherry Hill Rd #46,Arlington,VA,22207,320000,2,1.0,WAVERLY HILLS,965,,1965,,332,646,Sold,,,https://www.redfin.com/VA/Arlington/4401-Cherry-Hill-Rd-22207/unit-46/home/11234282,BRIGHT MLS,VAAR2040766,N,Y,38.8986043,-77.1170477
PAST SALE,April-26-2024,Condo/Co-op,1011 Arlington Blvd #948,Arlington,VA,22209,150000,0,1.0,RIVER PLACE SOUTH,494,,1955,,304,388,Sold,,,https://www.redfin.com/VA/Arlington/1011-Arlington-Blvd-22209/unit-948/home/11253609,BRIGHT MLS,VAAR2041922,N,Y,38.8921028,-77.0688111
PAST SALE,May-17-2024,Condo/Co-op,1021 N Garfield St #634,Arlington,VA,22201,505000,1,1.0,CLARENDON 1021,746,,2005,,677,466,Sold,,,https://www.redfin.com/VA/Arlington/1021-N-Garfield-St-22201/unit-634/home/11280026,BRIGHT MLS,VAAR2042078,N,Y,38.8855092,-77.0933367
PAST SALE,May-20-2024,Condo/Co-op,2101 N Monroe St #312,Arlington,VA,22207,325000,1,1.0,DOMINION HEIGHTS,610,,2013,,533,353,Sold,,,https://www.redfin.com/VA/Arlington/2101-N-Monroe-St-22207/unit-312/home/56337476,BRIGHT MLS,VAAR2042522,N,Y,38.8962232,-77.1043568
PAST SALE,January-12-2024,Condo/Co-op,1276 N Wayne St N #1201,Arlington,VA,22201,675000,2,2.0,WILLIAMSBURG,1007,,1992,,670,636,Sold,,,https://www.redfin.com/VA/Arlington/1276-N-Wayne-St-22201/unit-1201/home/11254272,BRIGHT MLS,VAAR2038200,N,Y,38.8880275,-77.0867979
PAST SALE,April-1-2024,Condo/Co-op,1200 N Nash St #824,Arlington,VA,22209,965000,2,2.0,PROSPECT HOUSE,1398,,1980,,690,1347,Sold,,,https://www.redfin.com/VA/Arlington/1200-N-Nash-St-22209/unit-824/home/11252148,BRIGHT MLS,VAAR2041032,N,Y,38.889265,-77.0728605
PAST SALE,January-30-2024,Single Family Residential,2546 Military Rd,Arlington,VA,22207,1225000,3,2.5,LORCOM GROVE,2623,10914,1939,,467,,Sold,,,https://www.redfin.com/VA/Arlington/2546-Military-Rd-22207/home/11232525,BRIGHT MLS,VAAR2038924,N,Y,38.9048013,-77.1092559
PAST SALE,April-15-2024,Condo/Co-op,1021 Arlington Blvd #702,Arlington,VA,22209,129950,0,1.0,RIVER PLACE,383,,1955,,339,344,Sold,,,https://www.redfin.com/VA/Arlington/1021-Arlington-Blvd-22209/unit-702/home/11253880,BRIGHT MLS,VAAR2040342,N,Y,38.8930252,-77.0689736
PAST SALE,April-18-2024,Condo/Co-op,2400 Clarendon Blvd #401,Arlington,VA,22201,477000,1,1.0,CHARLESTON CONDO,775,,1991,,615,656,Sold,,,https://www.redfin.com/VA/Arlington/2400-Clarendon-Blvd-22201/unit-401/home/11254604,BRIGHT MLS,VAAR2041118,N,Y,38.8894716,-77.0878285
PAST SALE,May-31-2024,Condo/Co-op,4343 Cherry Hill Rd #706,Arlington,VA,22207,250000,1,1.0,YORKTOWN,690,,1963,,362,616,Sold,,,https://www.redfin.com/VA/Arlington/4343-Cherry-Hill-Rd-22207/unit-706/home/11233407,BRIGHT MLS,VAAR2042478,N,Y,38.897776,-77.114916
PAST SALE,April-19-2024,Condo/Co-op,1121 Arlington Blvd #819,Arlington,VA,22209,185000,1,1.0,RIVER PLACE,716,,1955,,258,605,Sold,,,https://www.redfin.com/VA/Arlington/1121-Arlington-Blvd-22209/unit-819/home/11252778,BRIGHT MLS,VAAR2041654,N,Y,38.8935985,-77.0699826
PAST SALE,March-13-2024,Single Family Residential,1908 N Nelson St,Arlington,VA,22207,1715000,4,3.0,CHERRYDALE,3140,5870,1910,,546,,Sold,,,https://www.redfin.com/VA/Arlington/1908-N-Nelson-St-22207/home/11234074,BRIGHT MLS,VAAR2039860,N,Y,38.8943892,-77.1055247
PAST SALE,April-30-2024,Condo/Co-op,1021 Arlington Blvd #311,Arlington,VA,22209,130000,0,1.0,RIVER PLACE,383,,1955,,339,230,Sold,,,https://www.redfin.com/VA/Arlington/1021-Arlington-Blvd-22209/unit-311/home/11253708,BRIGHT MLS,VAAR2041892,N,Y,38.8930252,-77.0689736
PAST SALE,April-2-2024,Condo/Co-op,1931 N Cleveland St #201,Arlington,VA,22201,340000,2,1.0,CLEVELAND HOUSE,816,,1960,,417,481,Sold,,,https://www.redfin.com/VA/Arlington/1931-N-Cleveland-St-22201/unit-201/home/11247065,BRIGHT MLS,VAAR2039658,N,Y,38.8957114,-77.0911221
PAST SALE,May-3-2024,Condo/Co-op,4343 Cherry Hill Rd #602,Arlington,VA,22207,292000,1,1.0,YORKTOWN,750,,1963,,389,675,Sold,,,https://www.redfin.com/VA/Arlington/4343-Cherry-Hill-Rd-22207/unit-602/home/11233397,BRIGHT MLS,VAAR2041808,N,Y,38.897776,-77.114916
PAST SALE,April-26-2024,Single Family Residential,1601 N Stafford St,Arlington,VA,22207,2325000,5,4.5,CHERRYDALE,5000,6882,2019,,465,,Sold,,,https://www.redfin.com/VA/Arlington/1601-N-Stafford-St-22207/home/11233804,BRIGHT MLS,VAAR2040402,N,Y,38.8905668,-77.1115485
PAST SALE,April-2-2024,Condo/Co-op,2400 Clarendon Blvd Ph 04,Arlington,VA,22201,1125000,3,3.0,CHARLESTON CONDO,1781,,1991,,632,1714,Sold,,,https://www.redfin.com/VA/Arlington/2400-Clarendon-Blvd-22201/unit-4/home/109522330,BRIGHT MLS,VAAR2040634,N,Y,38.8894716,-77.0878285
PAST SALE,February-9-2024,Condo/Co-op,1121 Arlington Blvd #108,Arlington,VA,22209,165000,1,1.0,RIVER PLACE,559,,1955,,295,611,Sold,,,https://www.redfin.com/VA/Arlington/1121-Arlington-Blvd-22209/unit-108/home/11252441,BRIGHT MLS,VAAR2039062,N,Y,38.8935985,-77.0699826
PAST SALE,February-16-2024,Condo/Co-op,1200 N Hartford St #601,Arlington,VA,22201,885000,3,2.0,CLARENDON,1300,,2003,,681,818,Sold,,,https://www.redfin.com/VA/Arlington/1200-N-Hartford-St-22201/unit-601/home/11279817,BRIGHT MLS,VAAR2038718,N,Y,38.8880714,-77.0959295
PAST SALE,January-12-2024,Single Family Residential,2431 N Edgewood St,Arlington,VA,22207,1900000,5,5.0,DOVER BALMORAL RIVERWOOD,4931,15957,1920,,385,,Sold,,,https://www.redfin.com/VA/Arlington/2431-N-Edgewood-St-22207/home/11231492,BRIGHT MLS,VAAR2038376,N,Y,38.9018493,-77.0948924
PAST SALE,May-10-2024,Single Family Residential,2830 N Beechwood Cir,Arlington,VA,22207,1720000,5,3.0,DOVER BALMORAL RIVERWOOD,3610,14986,1932,,476,,Sold,,,https://www.redfin.com/VA/Arlington/2830-N-Beechwood-Cir-22207/home/11231248,BRIGHT MLS,VAAR2040244,N,Y,38.9100404,-77.1121792
PAST SALE,March-11-2024,Condo/Co-op,1200 N Hartford St #504,Arlington,VA,22201,460000,1,1.0,LYON VILLAGE,650,,2003,,708,420,Sold,,,https://www.redfin.com/VA/Arlington/1200-N-Hartford-St-22201/unit-504/home/11279808,BRIGHT MLS,VAAR2040306,N,Y,38.8880714,-77.0959295
PAST SALE,April-26-2024,Townhouse,1801 N Uhle St N #1,Arlington,VA,22201,750000,2,2.5,CHELSEA LANDING,1280,,1983,,586,400,Sold,,,https://www.redfin.com/VA/Arlington/1801-N-Uhle-St-22201/unit-1/home/11249648,BRIGHT MLS,VAAR2041528,N,Y,38.894999,-77.0846674
PAST SALE,March-6-2024,Condo/Co-op,1754 N Troy St #679,Arlington,VA,22201,33882,1,1.0,COLONIAL VILLAGE,590,,1938,,57,1262,Sold,,,https://www.redfin.com/VA/Arlington/1754-N-Troy-St-22201/unit-679/home/11250087,BRIGHT MLS,VAAR2040510,N,Y,38.893427,-77.0840219
PAST SALE,April-18-2024,Single Family Residential,1706 N Taylor St,Arlington,VA,22207,1205000,4,2.5,WILLET HEIGHTS,1631,7639,1929,,739,,Sold,,,https://www.redfin.com/VA/Arlington/1706-N-Taylor-St-22207/home/11233573,BRIGHT MLS,VAAR2041090,N,Y,38.891909,-77.1133262
PAST SALE,May-14-2024,Condo/Co-op,1700 Clarendon Blvd #154,Arlington,VA,22209,814000,1,1.5,ROSSLYN,1158,,2012,,703,472,Sold,,,https://www.redfin.com/VA/Arlington/1700-Clarendon-Blvd-22209/unit-154/home/49797916,BRIGHT MLS,VAAR2041326,N,Y,38.8928805,-77.0778967
PAST SALE,December-28-2023,Single Family Residential,2352 N Vermont St,Arlington,VA,22207,990000,3,2.5,LORCOM GROVE,2076,10241,1955,,477,,Sold,,,https://www.redfin.com/VA/Arlington/2352-N-Vermont-St-22207/home/11232051,BRIGHT MLS,VAAR2037414,N,Y,38.9035488,-77.1181564
PAST SALE,March-27-2024,Condo/Co-op,1200 N Nash St #1126,Arlington,VA,22209,1390000,2,2.0,PROSPECT HOUSE,1543,,1964,,901,1480,Sold,,,https://www.redfin.com/VA/Arlington/1200-N-Nash-St-22209/unit-1126/home/11252216,BRIGHT MLS,VAAR2039002,N,Y,38.889265,-77.0728605
PAST SALE,January-24-2024,Single Family Residential,2023 N Monroe St,Arlington,VA,22207,1725000,5,5.5,CHERRYDALE,5124,8367,2006,,337,,Sold,,,https://www.redfin.com/VA/Arlington/2023-N-Monroe-St-22207/home/11234185,BRIGHT MLS,VAAR2038112,N,Y,38.8954921,-77.1038001
PAST SALE,April-29-2024,Single Family Residential,2900 23rd St N,Arlington,VA,22201,1590000,4,3.5,MAYWOOD,2592,5500,1988,,613,,Sold,,,https://www.redfin.com/VA/Arlington/2900-23rd-St-N-22201/home/11233318,BRIGHT MLS,VAAR2041138,N,Y,38.8978012,-77.0985376
PAST SALE,December-28-2023,Condo/Co-op,3515 Washington Blvd #312,Arlington,VA,22201,343155,3,2.0,WENTWORTH PLACE,1200,,1960,,286,888,Sold,,,https://www.redfin.com/VA/Arlington/3515-Washington-Blvd-22201/unit-312/home/11248516,BRIGHT MLS,VAAR2038188,N,Y,38.8864178,-77.1047829
PAST SALE,December-12-2023,Single Family Residential,2411 N Monroe St,Arlington,VA,22207,1220000,3,2.0,DOVER BALMORAL RIVERWOOD,1764,18441,1952,,692,,Sold,,,https://www.redfin.com/VA/Arlington/2411-N-Monroe-St-22207/home/11231470,BRIGHT MLS,VAAR2037978,N,Y,38.9020235,-77.1013788
PAST SALE,May-1-2024,Condo/Co-op,2105 N Scott St #79,Arlington,VA,22209,277000,1,1.0,PALISADE GARDEN,539,,1947,,514,287,Sold,,,https://www.redfin.com/VA/Arlington/2105-N-Scott-St-22209/unit-79/home/11248881,BRIGHT MLS,VAAR2042052,N,Y,38.898594,-77.0810599
PAST SALE,March-25-2024,Condo/Co-op,1859 Wilson Blvd Unit 5-368,Arlington,VA,22201,305000,1,1.0,COLONIAL VILLAGE,602,,1940,,507,312,Sold,,,https://www.redfin.com/VA/Arlington/1859-Wilson-Blvd-22201/unit-5-368/home/11250321,BRIGHT MLS,VAAR2040666,N,Y,38.8930639,-77.0811706
PAST SALE,May-3-2024,Condo/Co-op,1021 N Garfield St N #414,Arlington,VA,22201,585000,1,1.0,CLARENDON 1021,873,,2005,,670,542,Sold,,,https://www.redfin.com/VA/Arlington/1021-N-Garfield-St-22201/unit-414/home/11281270,BRIGHT MLS,VAAR2040004,N,Y,38.8855092,-77.0933367
PAST SALE,March-12-2024,Single Family Residential,3136 N Quincy St,Arlington,VA,22207,1600000,4,3.5,BELLEVUE FOREST,3236,9862,1950,,494,,Sold,,,https://www.redfin.com/VA/Arlington/3136-N-Quincy-St-22207/home/11230845,BRIGHT MLS,VAAR2039844,N,Y,38.9143996,-77.1169531
PAST SALE,April-19-2024,Condo/Co-op,4643 20th Rd N #2,Arlington,VA,22207,265000,1,1.0,DOMINION TERRACE,594,,2005,,446,307,Sold,,,https://www.redfin.com/VA/Arlington/4643-20th-Rd-N-22207/unit-2/home/11280092,BRIGHT MLS,VAAR2040862,N,Y,38.8978298,-77.1201679
PAST SALE,January-31-2024,Condo/Co-op,1121 Arlington Blvd #729,Arlington,VA,22209,153980,1,1.0,RIVER PLACE,559,,1955,,275,443,Sold,,,https://www.redfin.com/VA/Arlington/1121-Arlington-Blvd-22209/unit-729/home/11252740,BRIGHT MLS,VAAR2038788,N,Y,38.8935985,-77.0699826
PAST SALE,April-15-2024,Condo/Co-op,1021 N Garfield St #1046,Arlington,VA,22201,535000,1,1.0,CLARENDON 1021,746,,2005,,717,466,Sold,,,https://www.redfin.com/VA/Arlington/1021-N-Garfield-St-22201/unit-1046/home/11281518,BRIGHT MLS,VAAR2040618,N,Y,38.8855092,-77.0933367
PAST SALE,February-2-2024,Single Family Residential,1940 N Woodrow St,Arlington,VA,22207,1100000,4,3.0,WILLET HEIGHTS,2622,6925,1955,,420,,Sold,,,https://www.redfin.com/VA/Arlington/1940-N-Woodrow-St-22207/home/11234812,BRIGHT MLS,VAAR2039078,N,Y,38.8953106,-77.1206458
PAST SALE,March-13-2024,Condo/Co-op,2100 Langston Blvd #110,Arlington,VA,22201,515500,2,2.0,ASTORIA,943,,1987,,547,909,Sold,,,https://www.redfin.com/VA/Arlington/2100-Langston-Blvd-22201/unit-110/home/11249780,BRIGHT MLS,VAAR2039334,N,Y,38.8959296,-77.0837196
PAST SALE,April-8-2024,Condo/Co-op,1021 N Garfield St #446,Arlington,VA,22201,512000,1,1.0,CLARENDON 1021,746,,2005,,686,466,Sold,,,https://www.redfin.com/VA/Arlington/1021-N-Garfield-St-22201/unit-446/home/11281302,BRIGHT MLS,VAAR2040918,N,Y,38.8855092,-77.0933367
PAST SALE,May-13-2024,Single Family Residential,1402 N Lincoln St,Arlington,VA,22201,1500000,4,2.5,DOUGLAS EST,2200,5830,1989,,682,,Sold,,,https://www.redfin.com/VA/Arlington/1402-N-Lincoln-St-22201/home/11247876,BRIGHT MLS,VAAR2042462,N,Y,38.8887292,-77.1035526
PAST SALE,May-2-2024,Single Family Residential,1621 N Colonial Ter,Arlington,VA,22209,2100000,4,3.5,ROSSLYN,5744,5494,2001,,366,,Sold,,,https://www.redfin.com/VA/Arlington/1621-N-Colonial-Ter-22209/home/11249213,BRIGHT MLS,VAAR2040188,N,Y,38.8979875,-77.077034
PAST SALE,May-30-2024,Condo/Co-op,1701 16th St N Unit 351E,Arlington,VA,22209,1100000,2,2.0,THE SELECT AT GASLIGHT SQUARE,1337,,2017,,823,564,Sold,,,https://www.redfin.com/VA/Arlington/1701-16th-St-N-22209/unit-351E/home/190220909,BRIGHT MLS,VAAR2041388,N,Y,38.8922181,-77.0777168
PAST SALE,April-2-2024,Condo/Co-op,2100 Langston Blvd #503,Arlington,VA,22201,500000,2,1.5,ASTORIA,944,,1987,,530,842,Sold,,,https://www.redfin.com/VA/Arlington/2100-Langston-Blvd-22201/unit-503/home/11249950,BRIGHT MLS,VAAR2039762,N,Y,38.8959296,-77.0837196
PAST SALE,April-5-2024,Single Family Residential,3017 Military Rd,Arlington,VA,22207,1457000,4,3.5,BELLEVUE FOREST,3053,18240,1948,,477,,Sold,,,https://www.redfin.com/VA/Arlington/3017-Military-Rd-22207/home/11230902,BRIGHT MLS,VAAR2040520,N,Y,38.9121825,-77.1136992
PAST SALE,February-23-2024,Condo/Co-op,1610 N Queen St #244,Arlington,VA,22209,795000,1,1.5,GASLIGHT SQUARE,1158,,2013,,687,493,Sold,,,https://www.redfin.com/VA/Arlington/1610-N-Queen-St-22209/unit-244/home/56337528,BRIGHT MLS,VAAR2038734,N,Y,38.8925594,-77.0778967
PAST SALE,April-5-2024,Single Family Residential,4020 20th St N,Arlington,VA,22207,800000,2,1.0,CHERRYDALE,870,3572,1937,,920,,Sold,,,https://www.redfin.com/VA/Arlington/4020-20th-St-N-22207/home/11233933,BRIGHT MLS,VAAR2040890,N,Y,38.8944903,-77.1087804
PAST SALE,May-29-2024,Townhouse,4088 Lee Hwy,Arlington,VA,22207,941000,3,3.0,"CHERRYDALE, WILLS & ALB",1796,901,1990,,524,150,Sold,,,https://www.redfin.com/VA/Arlington/4088-Cherry-Hill-Rd-22207/home/11233902,BRIGHT MLS,VAAR2042390,N,Y,38.89668,-77.11022
PAST SALE,May-2-2024,Condo/Co-op,1320 N Wayne St N #407,Arlington,VA,22201,829000,3,3.0,COURTHOUSE HILL,1430,,1996,,580,857,Sold,,,https://www.redfin.com/VA/Arlington/1320-N-Wayne-St-22201/unit-407/home/11254524,BRIGHT MLS,VAAR2041530,N,Y,38.8887061,-77.0865847
PAST SALE,March-22-2024,Townhouse,2031 20th Rd N,Arlington,VA,22201,791400,3,2.0,HIGHLAWN HIGHLANDS,1475,2175,1940,,537,,Sold,,,https://www.redfin.com/VA/Arlington/2031-20th-Rd-N-22201/home/11249012,BRIGHT MLS,VAAR2040200,N,Y,38.8976288,-77.0832837
PAST SALE,February-8-2024,Condo/Co-op,2023 21st St N #28,Arlington,VA,22201,460000,2,1.0,PALISADE GARDEN,865,,1947,,532,460,Sold,,,https://www.redfin.com/VA/Arlington/2023-21st-St-N-22201/unit-28/home/11248962,BRIGHT MLS,VAAR2038740,N,Y,38.8985949,-77.0823093
PAST SALE,May-8-2024,Condo/Co-op,1021 Arlington Blvd #537,Arlington,VA,22209,133000,0,1.0,RIVER PLACE,367,,1955,,362,420,Sold,,,https://www.redfin.com/VA/Arlington/1021-Arlington-Blvd-22209/unit-537/home/11253819,BRIGHT MLS,VAAR2041574,N,Y,38.8930252,-77.0689736
PAST SALE,May-6-2024,Single Family Residential,3317 20th Rd N,Arlington,VA,22207,1610000,4,3.5,CHERRYDALE,3336,6100,1942,,483,,Sold,,,https://www.redfin.com/VA/Arlington/3317-20th-Rd-N-22207/home/11234221,BRIGHT MLS,VAAR2041652,N,Y,38.8953808,-77.101535
PAST SALE,April-30-2024,Condo/Co-op,1700 Clarendon Blvd #114,Arlington,VA,22209,790000,1,1.5,GASLIGHT SQUARE,1158,,2012,,682,493,Sold,,,https://www.redfin.com/VA/Arlington/1700-Clarendon-Blvd-22209/unit-114/home/49797924,BRIGHT MLS,VAAR2041044,N,Y,38.8928805,-77.0778967
PAST SALE,March-1-2024,Condo/Co-op,1917 N Rhodes St #12,Arlington,VA,22201,319000,1,1.0,COLONIAL VILLAGE,635,,1940,,502,406,Sold,,,https://www.redfin.com/VA/Arlington/1917-N-Rhodes-St-22201/unit-12/home/11249341,BRIGHT MLS,VAAR2039866,N,Y,38.8961337,-77.0817599
PAST SALE,May-17-2024,Condo/Co-op,2532 Fairfax Dr Unit 3CII,Arlington,VA,22201,785000,2,2.0,BARTON PLACE,1224,,1985,,641,521,Sold,,,https://www.redfin.com/VA/Arlington/2532-Fairfax-Dr-22201/unit-3CII/home/190548424,BRIGHT MLS,VAAR2042728,N,Y,38.887233,-77.088726
PAST SALE,April-29-2024,Condo/Co-op,2310 14th St N #206,Arlington,VA,22201,710000,2,2.0,COURTHOUSE HILL,941,,1996,,755,571,Sold,,,https://www.redfin.com/VA/Arlington/2310-14th-St-N-22201/unit-206/home/11254475,BRIGHT MLS,VAAR2040348,N,Y,38.8889925,-77.0866795
PAST SALE,May-31-2024,Condo/Co-op,1021 Arlington Blvd #643,Arlington,VA,22209,200000,1,1.0,RIVER PLACE,716,,1955,,279,657,Sold,,,https://www.redfin.com/VA/Arlington/1021-Arlington-Blvd-22209/unit-643/home/11253873,BRIGHT MLS,VAAR2042974,N,Y,38.8930252,-77.0689736
PAST SALE,February-27-2024,Condo/Co-op,1276 N Wayne St #1030,Arlington,VA,22201,765000,2,2.0,WILLIAMSBURG,1007,,1992,,760,647,Sold,,,https://www.redfin.com/VA/Arlington/1276-N-Wayne-St-22201/unit-1030/home/11254392,BRIGHT MLS,VAAR2039564,N,Y,38.8880275,-77.0867979
PAST SALE,May-14-2024,Condo/Co-op,2016 N Adams St #702,Arlington,VA,22201,225000,0,1.0,ADAMS HOUSE,552,,1959,,408,349,Sold,,,https://www.redfin.com/VA/Arlington/2016-N-Adams-St-22201/unit-702/home/11247434,BRIGHT MLS,VAAR2042880,N,Y,38.8973216,-77.0895871
PAST SALE,April-25-2024,Condo/Co-op,1205 N Garfield St Ph 8,Arlington,VA,22201,734000,2,2.0,RESIDENCES AT STATION SQUARE,998,,2005,,735,645,Sold,,,https://www.redfin.com/VA/Arlington/1205-N-Garfield-St-22201/unit-8/home/11281101,BRIGHT MLS,VAAR2041072,N,Y,38.8869127,-77.0934499
PAST SALE,April-30-2024,Condo/Co-op,1881 N Nash St #1910,Arlington,VA,22209,2425000,2,2.5,ROSSLYN,2267,,2009,,1070,2218,Sold,,,https://www.redfin.com/VA/Arlington/1881-N-Nash-St-22209/unit-1910/home/28681816,BRIGHT MLS,VAAR2041438,N,Y,38.896966,-77.073168
PAST SALE,May-7-2024,Single Family Residential,1953 N Vermont St,Arlington,VA,22207,896604,3,1.5,WILLET HEIGHTS,1476,5233,1947,,607,,Sold,,,https://www.redfin.com/VA/Arlington/1953-N-Vermont-St-22207/home/11235115,BRIGHT MLS,VAAR2042090,N,Y,38.8953433,-77.1172823
PAST SALE,May-7-2024,Condo/Co-op,1201 N Garfield St #105,Arlington,VA,22201,685000,2,2.0,STATION SQUARE,1006,,2006,,681,632,Sold,,,https://www.redfin.com/VA/Arlington/1201-N-Garfield-St-22201/unit-105/home/12041401,BRIGHT MLS,VAAR2042320,N,Y,38.8866753,-77.0934537
PAST SALE,May-16-2024,Single Family Residential,1023 N Edgewood St N,Arlington,VA,22201,1850000,4,3.5,CLARENDON,3000,6000,2005,,617,,Sold,,,https://www.redfin.com/VA/Arlington/1023-N-Edgewood-St-22201/home/11254925,BRIGHT MLS,VAAR2040904,N,Y,38.8853924,-77.0914979
PAST SALE,March-19-2024,Condo/Co-op,3000 Spout Run Pkwy Unit C609,Arlington,VA,22201,295000,1,1.0,CARDINAL HOUSE,724,,1959,,407,614,Sold,,,https://www.redfin.com/VA/Arlington/3000-Spout-Run-Pkwy-22201/unit-C609/home/11247322,BRIGHT MLS,VAAR2039948,N,Y,38.8961748,-77.0944943
PAST SALE,April-12-2024,Single Family Residential,2625 N Marcey Rd,Arlington,VA,22207,1735000,5,3.5,DOVER BALMORAL RIVERWOOD,3553,12939,1949,,488,,Sold,,,https://www.redfin.com/VA/Arlington/2625-Marcey-Rd-22207/home/11231124,BRIGHT MLS,VAAR2040686,N,Y,38.9083422,-77.1098293
PAST SALE,,Condo/Co-op,1111 19th St N #2406,Arlington,VA,22209,533333,2,2.5,,1523,,2008,,350,,,,,https://www.redfin.com/VA/Arlington/1111-19th-St-N-22209/unit-2406/home/16898328,,,N,Y,38.8972352,-77.0698916
PAST SALE,December-29-2023,Condo/Co-op,1530 Key Blvd #403,Arlington,VA,22209,415000,1,1.0,ATRIUM CONDO,765,,1986,,542,679,Sold,,,https://www.redfin.com/VA/Arlington/1530-Key-Blvd-22209/unit-403/home/11250431,BRIGHT MLS,VAAR2038140,N,Y,38.8958315,-77.0759458
PAST SALE,June-3-2024,Condo/Co-op,2400 Clarendon Blvd #112,Arlington,VA,22201,400000,1,1.0,CHARLESTON CONDO,605,,1991,,661,595,Sold,,,https://www.redfin.com/VA/Arlington/2400-Clarendon-Blvd-22201/unit-112/home/11254568,BRIGHT MLS,VAAR2042312,N,Y,38.8894716,-77.0878285
PAST SALE,February-28-2024,Condo/Co-op,1615 N Queen St Unit M204,Arlington,VA,22209,1263000,2,2.5,THE WOOSTER AND MERCER LOFTS,2209,,2007,,572,1369,Sold,,,https://www.redfin.com/VA/Arlington/1615-N-Queen-St-22209/unit-M204/home/16897711,BRIGHT MLS,VAAR2038884,N,Y,38.8923335,-77.0768914
PAST SALE,January-9-2024,Single Family Residential,3844 26th St N,Arlington,VA,22207,1337500,4,3.0,DOVER BALMORAL RIVERWOOD,2756,13027,1969,,485,,Sold,,,https://www.redfin.com/VA/Arlington/3844-26th-St-N-22207/home/11231201,BRIGHT MLS,VAAR2038192,N,Y,38.9085836,-77.1074164
PAST SALE,January-8-2024,Single Family Residential,3542 Military Rd,Arlington,VA,22207,1280000,3,3.0,BROYHILL FOREST/HILLS,3013,12816,1952,,425,,Sold,,,https://www.redfin.com/VA/Arlington/3542-Military-Rd-22207/home/11229326,BRIGHT MLS,VAAR2037456,N,Y,38.917661,-77.1194599
PAST SALE,February-22-2024,Condo/Co-op,1401 N Oak St #909,Arlington,VA,22209,1850000,2,2.0,ROSSLYN,1734,,1981,,1067,1243,Sold,,,https://www.redfin.com/VA/Arlington/1401-N-Oak-St-22209/unit-909/home/11251799,BRIGHT MLS,VAAR2039208,N,Y,38.8904482,-77.0729957
PAST SALE,April-4-2024,Condo/Co-op,1309 N Ode St #512,Arlington,VA,22209,299000,1,1.0,WESTMORELAND TER,641,,1947,,466,368,Sold,,,https://www.redfin.com/VA/Arlington/1309-N-Ode-St-22209/unit-512/home/11251887,BRIGHT MLS,VAAR2040676,N,Y,38.8898232,-77.0751892
PAST SALE,March-18-2024,Condo/Co-op,1418 N Rhodes St Unit B425,Arlington,VA,22209,1025000,2,2.5,COURTHOUSE,1832,,2010,,559,738,Sold,,,https://www.redfin.com/VA/Arlington/1418-N-Rhodes-St-22209/unit-B425/home/40630044,BRIGHT MLS,VAAR2039872,N,Y,38.890856,-77.0793712
PAST SALE,March-1-2024,Townhouse,1508 N Scott St Unit TH-3,Arlington,VA,22209,702000,3,1.5,ODYSSEY,1412,,2006,,497,914,Sold,,,https://www.redfin.com/VA/Arlington/1508-N-Scott-St-22209/unit-TH-3/home/22983514,BRIGHT MLS,VAAR2039630,N,Y,38.8910257,-77.0810191
PAST SALE,May-24-2024,Condo/Co-op,1401 N Oak St #308,Arlington,VA,22209,1050000,3,2.5,THE WESLIE,2064,,1981,,509,1494,Sold,,,https://www.redfin.com/VA/Arlington/1401-N-Oak-St-22209/unit-308/home/11251774,BRIGHT MLS,VAAR2041544,N,Y,38.8904482,-77.0729957
PAST SALE,May-22-2024,Condo/Co-op,1111 19th St N #2101,Arlington,VA,22209,825000,1,2.0,ROSSLYN,947,,2008,,871,1000,Sold,,,https://www.redfin.com/VA/Arlington/1111-19th-St-N-22209/unit-2101/home/16898363,BRIGHT MLS,VAAR2041238,N,Y,38.8972352,-77.0698916
PAST SALE,April-19-2024,Condo/Co-op,1600 N Oak St #621,Arlington,VA,22209,665200,2,2.0,BELVEDERE,1320,,1987,,504,875,Sold,,,https://www.redfin.com/VA/Arlington/1600-N-Oak-St-22209/unit-621/home/11251033,BRIGHT MLS,VAAR2041372,N,Y,38.8926093,-77.0736009
PAST SALE,February-20-2024,Condo/Co-op,2000 Clarendon Blvd #1004,Arlington,VA,22201,842000,2,2.0,COURTHOUSE,973,,2021,,865,632,Sold,,,https://www.redfin.com/VA/Arlington/2000-Clarendon-Blvd-22201/unit-1004/home/180266309,BRIGHT MLS,VAAR2039066,N,Y,38.8914769,-77.082077
PAST SALE,April-30-2024,Condo/Co-op,1881 N Nash St #1908,Arlington,VA,22209,1750000,2,2.5,TURNBERRY TOWER,2039,,2009,,858,1955,Sold,,,https://www.redfin.com/VA/Arlington/1881-N-Nash-St-22209/unit-1908/home/28681818,BRIGHT MLS,VAAR2041570,N,Y,38.896966,-77.073168
PAST SALE,February-15-2024,Condo/Co-op,1924 N Rhodes St #83,Arlington,VA,22201,267500,0,1.0,COLONIAL VILLAGE,482,,1940,,555,311,Sold,,,https://www.redfin.com/VA/Arlington/1924-N-Rhodes-St-22201/unit-83/home/11249592,BRIGHT MLS,VAAR2039030,N,Y,38.8960133,-77.0823095
PAST SALE,December-15-2023,Townhouse,1915-C N Adams St,Arlington,VA,22201,795000,2,2.0,GENTRY SQUARE,1728,,1980,,460,232,Sold,,,https://www.redfin.com/VA/Arlington/1915-C-N-Adams-St-22201/home/172273211,BRIGHT MLS,VAAR2037524,N,Y,38.89598,-77.08843
PAST SALE,December-27-2023,Single Family Residential,4300 31st St N,Arlington,VA,22207,1200000,5,3.0,BROYHILL FOREST/HILLS,2374,11033,1951,,505,,Sold,,,https://www.redfin.com/VA/Arlington/4300-31st-St-N-22207/home/11230278,BRIGHT MLS,VAAR2037516,N,Y,38.9115106,-77.117572
PAST SALE,May-24-2024,Single Family Residential,2317 N Utah St,Arlington,VA,22207,1775000,5,4.5,LORCOM GROVE,3568,5769,2012,,497,,Sold,,,https://www.redfin.com/VA/Arlington/2317-N-Utah-St-22207/home/22678599,BRIGHT MLS,VAAR2041920,N,Y,38.9017827,-77.1181564
PAST SALE,May-31-2024,Multi-Family (2-4 Unit),4510 Washington Blvd,Arlington,VA,22201,1610000,,,BALLSTON,2132,5050,1962,,755,,Sold,,,https://www.redfin.com/VA/Arlington/4510-Washington-Blvd-22201/home/11244194,BRIGHT MLS,VAAR2041672,N,Y,38.8852855,-77.1158105
PAST SALE,April-8-2024,Condo/Co-op,2101 N Monroe St #214,Arlington,VA,22207,500000,2,1.0,DOMINION HEIGHTS,866,,2013,,577,530,Sold,,,https://www.redfin.com/VA/Arlington/2101-N-Monroe-St-22207/unit-214/home/56337488,BRIGHT MLS,VAAR2041358,N,Y,38.8962314,-77.1043554
PAST SALE,April-10-2024,Condo/Co-op,1530 Key Blvd #305,Arlington,VA,22209,449900,1,1.0,ATRIUM CONDO,765,,1986,,588,685,Sold,,,https://www.redfin.com/VA/Arlington/1530-Key-Blvd-22209/unit-305/home/11250404,BRIGHT MLS,VAAR2040070,N,Y,38.8958315,-77.0759458
PAST SALE,March-18-2024,Condo/Co-op,2100 Langston Blvd #111,Arlington,VA,22201,380000,1,1.0,ASTORIA,721,,1987,,527,659,Sold,,,https://www.redfin.com/VA/Arlington/2100-Langston-Blvd-22201/unit-111/home/11249781,BRIGHT MLS,VAAR2039602,N,Y,38.8959296,-77.0837196
PAST SALE,April-5-2024,Condo/Co-op,1200 Nash St N #135,Arlington,VA,22209,408000,1,1.0,PROSPECT HOUSE,728,,1964,,560,700,Sold,,,https://www.redfin.com/VA/Arlington/1200-N-Nash-St-22209/unit-135/home/11251994,BRIGHT MLS,VAAR2039998,N,Y,38.889265,-77.0728605
PAST SALE,March-1-2024,Condo/Co-op,1021 Arlington Blvd #506,Arlington,VA,22209,231000,1,1.0,RIVER PLACE,716,,1955,,323,617,Sold,,,https://www.redfin.com/VA/Arlington/1021-Arlington-Blvd-22209/unit-506/home/11253788,BRIGHT MLS,VAAR2039094,N,Y,38.8930252,-77.0689736
PAST SALE,April-17-2024,Single Family Residential,2607 Key Blvd,Arlington,VA,22201,2050000,5,4.5,LYON VILLAGE,3290,7015,1940,,623,,Sold,,,https://www.redfin.com/VA/Arlington/2607-Key-Blvd-22201/home/11247724,BRIGHT MLS,VAAR2040974,N,Y,38.8926987,-77.0914979
PAST SALE,March-18-2024,Condo/Co-op,1881 N Nash St Unit TS01,Arlington,VA,22209,4750000,3,4.5,TURNBERRY TOWER,4447,,2009,,1068,4286,Sold,,,https://www.redfin.com/VA/Arlington/1881-N-Nash-St-22209/unit-TS01/home/28503944,BRIGHT MLS,VAAR2039798,N,Y,38.896966,-77.073168
PAST SALE,April-30-2024,Condo/Co-op,1121 Arlington Blvd #324,Arlington,VA,22209,108000,0,1.0,RIVER PLACE,442,,1955,,244,335,Sold,,,https://www.redfin.com/VA/Arlington/1121-Arlington-Blvd-22209/unit-324/home/11252543,BRIGHT MLS,VAAR2041060,N,Y,38.8935985,-77.0699826
PAST SALE,January-9-2024,Condo/Co-op,1121 Arlington Blvd #232,Arlington,VA,22209,150000,1,1.0,RIVER PLACE,559,,1955,,268,453,Sold,,,https://www.redfin.com/VA/Arlington/1121-Arlington-Blvd-22209/unit-232/home/11252506,BRIGHT MLS,VAAR2037866,N,Y,38.8935985,-77.0699826
PAST SALE,December-12-2023,Condo/Co-op,1021 N Garfield St #1014,Arlington,VA,22201,680000,1,1.0,CLARENDON 1021,957,,2005,,711,492,Sold,,,https://www.redfin.com/VA/Arlington/1021-N-Garfield-St-22201/unit-1014/home/11281506,BRIGHT MLS,VAAR2037944,N,Y,38.8855092,-77.0933367
PAST SALE,April-17-2024,Townhouse,1140 N Stuart St,Arlington,VA,22201,1850000,5,3.5,Arlington,3931,2145,2019,,471,192,Sold,,,https://www.redfin.com/VA/Arlington/1140-N-Stuart-St-22201/home/114033545,BRIGHT MLS,VAAR2041050,N,Y,38.8852843,-77.1123388
PAST SALE,,Condo/Co-op,2109 N Monroe St #1,Arlington,VA,22207,550000,2,2.5,,1296,,1981,,424,,,,,https://www.redfin.com/VA/Arlington/2109-N-Monroe-St-22207/unit-1/home/11233168,,,N,Y,38.896489,-77.104132
PAST SALE,February-2-2024,Condo/Co-op,2111 N Scott St #59,Arlington,VA,22209,380000,2,1.0,PALISADE GARDEN,679,,1947,,560,361,Sold,,,https://www.redfin.com/VA/Arlington/2111-N-Scott-St-22209/unit-59/home/11248861,BRIGHT MLS,VAAR2038338,N,Y,38.8987629,-77.0811151
PAST SALE,February-20-2024,Condo/Co-op,2220 Fairfax Dr #211,Arlington,VA,22201,800000,2,2.5,THE PARK AT COURTHOUSE,1512,,2007,,529,870,Sold,,,https://www.redfin.com/VA/Arlington/2220-Fairfax-Dr-22201/unit-211/home/16897504,BRIGHT MLS,VAAR2038996,N,Y,38.8863419,-77.0853443
PAST SALE,April-23-2024,Condo/Co-op,3000 Spout Run Pkwy Unit A206,Arlington,VA,22201,260000,1,1.0,CARDINAL HOUSE,759,,1959,,343,644,Sold,,,https://www.redfin.com/VA/Arlington/3000-Spout-Run-Pkwy-22201/unit-A206/home/11247167,BRIGHT MLS,VAAR2039426,N,Y,38.8961748,-77.0944943
PAST SALE,April-19-2024,Condo/Co-op,2220 Fairfax Dr Ph 05,Arlington,VA,22201,555000,1,1.5,THE PARK AT COURTHOUSE,887,,2006,,626,512,Sold,,,https://www.redfin.com/VA/Arlington/2220-Fairfax-Dr-22201/unit-5/home/16897881,BRIGHT MLS,VAAR2041202,N,Y,38.8863419,-77.0853443
PAST SALE,April-16-2024,Townhouse,1507 22nd St N,Arlington,VA,22209,1130000,3,3.5,PALISADES PARK,2092,1219,1995,,540,245,Sold,,,https://www.redfin.com/VA/Arlington/1507-22nd-St-N-22209/home/11248666,BRIGHT MLS,VAAR2041058,N,Y,38.9001976,-77.0756746
PAST SALE,March-29-2024,Condo/Co-op,3000 Spout Run Pkwy Unit A401,Arlington,VA,22201,319950,2,1.0,CARDINAL HOUSE,874,,1959,,366,742,Sold,,,https://www.redfin.com/VA/Arlington/3000-Spout-Run-Pkwy-22201/unit-A401/home/11247186,BRIGHT MLS,VAAR2040206,N,Y,38.8961748,-77.0944943
PAST SALE,January-12-2024,Townhouse,1204 N Danville St,Arlington,VA,22201,1580000,3,3.5,CLARENDON CENTER,2248,918,2001,,703,175,Sold,,,https://www.redfin.com/VA/Arlington/1204-N-Danville-St-22201/home/11278897,BRIGHT MLS,VAAR2036636,N,Y,38.887085,-77.0906908
PAST SALE,April-16-2024,Condo/Co-op,1600 N Oak St #429,Arlington,VA,22209,550000,2,1.5,BELVEDERE,945,,1987,,582,626,Sold,,,https://www.redfin.com/VA/Arlington/1600-N-Oak-St-22209/unit-429/home/11251007,BRIGHT MLS,VAAR2041012,N,Y,38.8928888,-77.0732022
PAST SALE,April-30-2024,Townhouse,1936 N Daniel St,Arlington,VA,22201,1000000,3,3.0,LYONGATE,2476,2300,1992,,404,113,Sold,,,https://www.redfin.com/VA/Arlington/1936-N-Daniel-St-22201/home/11247471,BRIGHT MLS,VAAR2039710,N,Y,38.8957883,-77.0936076
PAST SALE,April-5-2024,Condo/Co-op,1011 Arlington Blvd Unit PKSP,Arlington,VA,22209,8000,0,,RIVER PLACE,,,1955,,,76,Sold,,,https://www.redfin.com/VA/Arlington/1011-Arlington-Blvd-22209/unit-PK-SP/home/169590854,BRIGHT MLS,VAAR2039684,N,Y,38.8921127,-77.0689033
PAST SALE,April-22-2024,Condo/Co-op,1301 Courthouse Rd N #601,Arlington,VA,22201,525000,2,2.0,WOODBURY HEIGHTS,1044,,1983,,503,921,Sold,,,https://www.redfin.com/VA/Arlington/1301-N-Courthouse-Rd-22201/unit-601/home/11251298,BRIGHT MLS,VAAR2040900,N,Y,38.8884978,-77.0829361
PAST SALE,December-14-2023,Condo/Co-op,1904 Key Blvd #9449,Arlington,VA,22201,289000,1,1.0,COLONIAL VILLAGE,608,,1940,,475,315,Sold,,,https://www.redfin.com/VA/Arlington/1904-Key-Blvd-22201/unit-9449/home/11250119,BRIGHT MLS,VAAR2037296,N,Y,38.8943375,-77.0829099
PAST SALE,January-10-2024,Condo/Co-op,2400 Clarendon Blvd #808,Arlington,VA,22201,496000,2,1.0,CHARLESTON CONDO,760,,1991,,653,684,Sold,,,https://www.redfin.com/VA/Arlington/2400-Clarendon-Blvd-22201/unit-808/home/11254675,BRIGHT MLS,VAAR2037596,N,Y,38.8894716,-77.0878285
PAST SALE,April-1-2024,Condo/Co-op,1021 Arlington Blvd #621,Arlington,VA,22209,200000,1,1.0,RIVER PLACE,514,,1955,,389,442,Sold,,,https://www.redfin.com/VA/Arlington/1021-Arlington-Blvd-22209/unit-621/home/11253851,BRIGHT MLS,VAAR2039764,N,Y,38.8930252,-77.0689736
PAST SALE,April-26-2024,Condo/Co-op,1121 Arlington Blvd #317,Arlington,VA,22209,160000,1,1.0,RIVER PLACE,559,,1955,,286,522,Sold,,,https://www.redfin.com/VA/Arlington/1121-Arlington-Blvd-22209/unit-317/home/11252536,BRIGHT MLS,VAAR2041422,N,Y,38.8935985,-77.0699826
PAST SALE,April-4-2024,Condo/Co-op,1121 Arlington Blvd #123,Arlington,VA,22209,125000,0,1.0,RIVER PLACE,383,,1955,,326,268,Sold,,,https://www.redfin.com/VA/Arlington/1121-Arlington-Blvd-22209/unit-123/home/11252456,BRIGHT MLS,VAAR2039882,N,Y,38.8935985,-77.0699826
PAST SALE,December-21-2023,Condo/Co-op,2220 Fairfax Dr #302,Arlington,VA,22201,410000,1,1.0,THE PARK AT COURTHOUSE,704,,2007,,582,425,Sold,,,https://www.redfin.com/VA/Arlington/2220-Fairfax-Dr-22201/unit-302/home/16897501,BRIGHT MLS,VAAR2037576,N,Y,38.8863419,-77.0853443
PAST SALE,December-29-2023,Single Family Residential,1507 N Hartford St,Arlington,VA,22201,2540000,5,4.5,LYON VILLAGE,3973,7720,2010,,639,,Sold,,,https://www.redfin.com/VA/Arlington/1507-N-Hartford-St-22201/home/11248238,BRIGHT MLS,VAAR2037572,N,Y,38.8898307,-77.0968898
PAST SALE,December-18-2023,Condo/Co-op,2100 Langston Blvd #226,Arlington,VA,22201,359000,1,1.0,ASTORIA,721,,1987,,498,637,Sold,,,https://www.redfin.com/VA/Arlington/2100-Langston-Blvd-22201/unit-226/home/11249828,BRIGHT MLS,VAAR2036224,N,Y,38.8959296,-77.0837196
PAST SALE,February-9-2024,Condo/Co-op,1111 Arlington Blvd #927,Arlington,VA,22209,139500,0,1.0,RIVER PLACE,383,,1955,,364,338,Sold,,,https://www.redfin.com/VA/Arlington/1111-Arlington-Blvd-22209/unit-927/home/11253246,BRIGHT MLS,VAAR2038618,N,Y,38.8925425,-77.0699146
PAST SALE,May-24-2024,Condo/Co-op,1021 N Garfield #612,Arlington,VA,22201,515900,1,1.0,CLARENDON 1021,745,,2005,,692,466,Sold,,,https://www.redfin.com/VA/Arlington/1021-N-Garfield-St-22201/unit-612/home/11281364,BRIGHT MLS,VAAR2040224,N,Y,38.8855092,-77.0933367
PAST SALE,April-23-2024,Condo/Co-op,1021 Arlington Blvd #341,Arlington,VA,22209,155000,1,1.0,RIVER PLACE,559,,1955,,277,473,Sold,,,https://www.redfin.com/VA/Arlington/1021-Arlington-Blvd-22209/unit-341/home/11253738,BRIGHT MLS,VAAR2040758,N,Y,38.8930252,-77.0689736
PAST SALE,March-5-2024,Condo/Co-op,2100 Langston Blvd #123,Arlington,VA,22201,515000,2,2.0,ASTORIA,1037,,1987,,497,853,Sold,,,https://www.redfin.com/VA/Arlington/2100-Langston-Blvd-22201/unit-123/home/11249793,BRIGHT MLS,VAAR2039314,N,Y,38.8959296,-77.0837196
PAST SALE,April-30-2024,Single Family Residential,1615 N Wakefield St,Arlington,VA,22207,1115000,3,3.0,WILLET HEIGHTS,1300,8042,1950,,858,,Sold,,,https://www.redfin.com/VA/Arlington/1615-N-Wakefield-St-22207/home/11235317,BRIGHT MLS,VAAR2039760,N,Y,38.891101,-77.1176731
PAST SALE,April-9-2024,Condo/Co-op,1530 Key Blvd #810,Arlington,VA,22209,502000,1,1.0,ATRIUM CONDO,850,,1986,,591,750,Sold,,,https://www.redfin.com/VA/Arlington/1530-Key-Blvd-22209/unit-810/home/11250544,BRIGHT MLS,VAAR2039572,N,Y,38.8958315,-77.0759458
PAST SALE,January-3-2024,Single Family Residential,3840 26th St N,Arlington,VA,22207,1265000,4,3.0,DOVER BALMORAL RIVERWOOD,3068,10000,1969,,412,,Sold,,,https://www.redfin.com/VA/Arlington/3840-26th-St-N-22207/home/11231199,BRIGHT MLS,VAAR2036990,N,Y,38.9090877,-77.1072105
PAST SALE,April-18-2024,Condo/Co-op,1205 N Garfield St #311,Arlington,VA,22201,474750,1,1.0,STATION SQUARE,675,,2005,,703,443,Sold,,,https://www.redfin.com/VA/Arlington/1205-N-Garfield-St-22201/unit-311/home/11281037,BRIGHT MLS,VAAR2040468,N,Y,38.8869127,-77.0934499
PAST SALE,April-10-2024,Condo/Co-op,1309 N Ode St #504,Arlington,VA,22209,372000,2,1.0,WESTMORELAND TER,783,,1947,,475,485,Sold,,,https://www.redfin.com/VA/Arlington/1309-N-Ode-St-22209/unit-504/home/11251885,BRIGHT MLS,VAAR2039518,N,Y,38.8898232,-77.0751892
PAST SALE,December-8-2023,Single Family Residential,3077 N Quincy St,Arlington,VA,22207,1727500,5,6.5,BELLEVUE FOREST,4430,7795,2003,,390,,Sold,,,https://www.redfin.com/VA/Arlington/3077-N-Quincy-St-22207/home/11279086,BRIGHT MLS,VAAR2036290,N,Y,38.9139437,-77.1148119
PAST SALE,,Condo/Co-op,1200 N Nash St #1148,Arlington,VA,22209,772000,1,1.0,,1168,,1980,,661,,,,,https://www.redfin.com/VA/Arlington/1200-N-Nash-St-22209/unit-1148/home/11252238,,,N,Y,38.889265,-77.0728605
PAST SALE,January-3-2024,Condo/Co-op,2030 N Adams St #909,Arlington,VA,22201,230000,1,1.0,CIRCLE,578,,1964,,398,726,Sold,,,https://www.redfin.com/VA/Arlington/2030-N-Adams-St-22201/unit-909/home/11246996,BRIGHT MLS,VAAR2037892,N,Y,38.8977682,-77.0896321
PAST SALE,March-28-2024,Condo/Co-op,1745 N Troy St Unit 8-433,Arlington,VA,22201,330000,1,1.0,COLONIAL VILLAGE,627,,1940,,526,334,Sold,,,https://www.redfin.com/VA/Arlington/1745-N-Troy-St-22201/unit-8-433/home/11250211,BRIGHT MLS,VAAR2039490,N,Y,38.8937116,-77.0823659
PAST SALE,February-15-2024,Condo/Co-op,2100 Langston Blvd #414,Arlington,VA,22201,250000,0,1.0,ASTORIA,494,,1987,,506,456,Sold,,,https://www.redfin.com/VA/Arlington/2100-Langston-Blvd-22201/unit-414/home/11249912,BRIGHT MLS,VAAR2038202,N,Y,38.8959296,-77.0837196
PAST SALE,February-6-2024,Condo/Co-op,1121 Arlington Blvd #243,Arlington,VA,22209,190000,1,1.0,RIVER PLACE,716,,1955,,265,622,Sold,,,https://www.redfin.com/VA/Arlington/1121-Arlington-Blvd-22209/unit-243/home/11252515,BRIGHT MLS,VAAR2038042,N,Y,38.8935985,-77.0699826
PAST SALE,May-6-2024,Condo/Co-op,3000 Spout Run Pkwy Unit A209,Arlington,VA,22201,235000,1,1.0,CARDINAL HOUSE,724,,1959,,325,614,Sold,,,https://www.redfin.com/VA/Arlington/3000-Spout-Run-Pkwy-22201/unit-A209/home/11247170,BRIGHT MLS,VAAR2041356,N,Y,38.8961748,-77.0944943
PAST SALE,February-29-2024,Single Family Residential,2323 N Utah St,Arlington,VA,22207,870000,3,2.0,LORCOM GROVE,1064,5691,1953,,818,,Sold,,,https://www.redfin.com/VA/Arlington/2323-N-Utah-St-22207/home/11232635,BRIGHT MLS,VAAR2039120,N,Y,38.9020833,-77.1177428
PAST SALE,April-19-2024,Condo/Co-op,1902 N Rhodes St #66,Arlington,VA,22201,269000,1,1.0,COLONIAL VILLAGE,482,,1940,,558,311,Sold,,,https://www.redfin.com/VA/Arlington/1902-N-Rhodes-St-22201/unit-66/home/11249575,BRIGHT MLS,VAAR2040998,N,Y,38.895626,-77.082416
PAST SALE,January-12-2024,Condo/Co-op,1121 Arlington Blvd #1008,Arlington,VA,22209,330000,2,2.0,RIVER PLACE,1019,,1955,,324,1059,Sold,,,https://www.redfin.com/VA/Arlington/1121-Arlington-Blvd-22209/unit-1008/home/11252863,BRIGHT MLS,VAAR2034820,N,Y,38.8935985,-77.0699826
PAST SALE,May-21-2024,Townhouse,1529 N Colonial Ter Unit B,Arlington,VA,22209,831000,3,3.5,THE FEDERAL RIDGE,1476,,1981,,563,325,Sold,,,https://www.redfin.com/VA/Arlington/1529-N-Colonial-Ter-22209/unit-B/home/11249095,BRIGHT MLS,VAAR2041454,N,Y,38.8966763,-77.0745432
PAST SALE,January-26-2024,Townhouse,1505-D N Colonial Ter,Arlington,VA,22209,1350000,3,3.0,HIGHGATE,1956,1062,1993,,690,142,Sold,,,https://www.redfin.com/VA/Arlington/1505-D-N-Colonial-Ter-22209/home/188194211,BRIGHT MLS,VAAR2037376,N,Y,38.89654144,-77.07514813
PAST SALE,April-3-2024,Condo/Co-op,1735 N Rhodes St #242,Arlington,VA,22201,408000,2,1.0,COLONIAL VILLAGE,850,,1940,,480,458,Sold,,,https://www.redfin.com/VA/Arlington/1735-N-Rhodes-St-22201/unit-242/home/167196475,BRIGHT MLS,VAAR2039486,N,Y,38.8940635,-77.0803923
PAST SALE,,Condo/Co-op,4401 Cherry Hill Rd #22,Arlington,VA,22207,275000,2,1.0,,965,,1965,,285,,,,,https://www.redfin.com/VA/Arlington/4401-Cherry-Hill-Rd-22207/unit-22/home/11234260,,,N,Y,38.8986043,-77.1170477
PAST SALE,December-11-2023,Single Family Residential,2807 N Quebec St,Arlington,VA,22207,1375000,4,3.0,DOVER BALMORAL RIVERWOOD,2997,21290,1967,,459,,Sold,,,https://www.redfin.com/VA/Arlington/2807-N-Quebec-St-22207/home/11231030,BRIGHT MLS,VAAR2035496,N,Y,38.9114486,-77.1036509
PAST SALE,March-15-2024,Condo/Co-op,2001 15th St N #1009,Arlington,VA,22201,710000,2,2.0,ODYSSEY,1063,,2006,,668,739,Sold,,,https://www.redfin.com/VA/Arlington/2001-15th-St-N-22201/unit-1009/home/12041329,BRIGHT MLS,VAAR2039134,N,Y,38.8912215,-77.081359
PAST SALE,January-5-2024,Condo/Co-op,1221 N Quinn St #21,Arlington,VA,22209,415000,2,1.0,ROSSLYN,859,,1963,,483,435,Sold,,,https://www.redfin.com/VA/Arlington/1221-N-Quinn-St-22209/unit-21/home/16897599,BRIGHT MLS,VAAR2037526,N,Y,38.8882628,-77.0778304
PAST SALE,May-17-2024,Condo/Co-op,1021 Arlington Blvd #832,Arlington,VA,22209,174900,1,1.0,RIVER PLACE,559,,1955,,313,423,Sold,,,https://www.redfin.com/VA/Arlington/1021-Arlington-Blvd-22209/unit-832/home/11253958,BRIGHT MLS,VAAR2040554,N,Y,38.8930252,-77.0689736
PAST SALE,April-2-2024,Condo/Co-op,1701 16th St N #328,Arlington,VA,22209,1600000,2,2.5,ARLINGTON,1882,,2017,,850,865,Sold,,,https://www.redfin.com/VA/Arlington/1701-16th-St-N-22209/unit-328/home/148174339,BRIGHT MLS,VAAR2039694,N,Y,38.8922414,-77.0776815
PAST SALE,January-8-2024,Condo/Co-op,1301 N Courthouse Rd #1807,Arlington,VA,22201,805000,2,2.5,WOODBURY HEIGHTS,1518,,1983,,530,1263,Sold,,,https://www.redfin.com/VA/Arlington/1301-N-Courthouse-Rd-22201/unit-1807/home/11251458,BRIGHT MLS,VAAR2037138,N,Y,38.8884978,-77.0829361
PAST SALE,April-23-2024,Condo/Co-op,1201 N Garfield St #117,Arlington,VA,22201,730000,2,2.0,STATION SQUARE,1006,,2006,,726,645,Sold,,,https://www.redfin.com/VA/Arlington/1201-N-Garfield-St-22201/unit-117/home/12041411,BRIGHT MLS,VAAR2040578,N,Y,38.8866753,-77.0934537
PAST SALE,December-27-2023,Condo/Co-op,1121 Arlington Blvd #624,Arlington,VA,22209,135000,0,1.0,RIVER PLACE,442,,1955,,305,390,Sold,,,https://www.redfin.com/VA/Arlington/1121-Arlington-Blvd-22209/unit-624/home/11252687,BRIGHT MLS,VAAR2036828,N,Y,38.8935985,-77.0699826
PAST SALE,May-10-2024,Condo/Co-op,1336 N Ode St N #13,Arlington,VA,22209,299900,1,1.0,WESTMORELAND TER,672,,1947,,446,425,Sold,,,https://www.redfin.com/VA/Arlington/1336-N-Ode-St-22209/unit-13/home/11251972,BRIGHT MLS,VAAR2040914,N,Y,38.8902528,-77.0761206
PAST SALE,January-5-2024,Condo/Co-op,1021 Arlington Blvd #713,Arlington,VA,22209,135000,0,1.0,RIVER PLACE,437,,1955,,309,390,Sold,,,https://www.redfin.com/VA/Arlington/1021-Arlington-Blvd-22209/unit-713/home/11253891,BRIGHT MLS,VAAR2036834,N,Y,38.8930252,-77.0689736
PAST SALE,April-30-2024,Condo/Co-op,1881 N Nash St #1911,Arlington,VA,22209,2650000,2,3.5,TURNBERRY TOWER,3050,,2009,,869,2233,Sold,,,https://www.redfin.com/VA/Arlington/1881-N-Nash-St-22209/unit-1911/home/28681817,BRIGHT MLS,VAAR2039876,N,Y,38.896966,-77.073168
PAST SALE,December-21-2023,Single Family Residential,3162 Pollard St N,Arlington,VA,22207,2674200,6,7.0,BELLEVUE FOREST,6463,15356,2017,,414,,Sold,,,https://www.redfin.com/VA/Arlington/3162-N-Pollard-St-22207/home/11230813,BRIGHT MLS,VAAR2036498,N,Y,38.9161859,-77.1173922
PAST SALE,March-6-2024,Condo/Co-op,1302 N Meade St Unit EN305,Arlington,VA,22209,425000,2,1.0,ROSSLYN HGHTS,840,,1952,,506,540,Sold,,,https://www.redfin.com/VA/Arlington/1302-N-Meade-St-22209/unit-EN305/home/11252404,BRIGHT MLS,VAAR2038918,N,Y,38.8897292,-77.0716421
PAST SALE,May-31-2024,Condo/Co-op,1201 N Nash St #102,Arlington,VA,22209,1475000,2,2.0,MEMORIAL OVERLOOK,2068,,2002,,713,1924,Sold,,,https://www.redfin.com/VA/Arlington/1201-N-Nash-St-22209/unit-102/home/11279024,BRIGHT MLS,VAAR2041330,N,Y,38.8883676,-77.0719285
PAST SALE,April-9-2024,Condo/Co-op,1205 N Garfield St #510,Arlington,VA,22201,467000,1,1.0,STATION SQUARE,675,,2005,,692,455,Sold,,,https://www.redfin.com/VA/Arlington/1205-N-Garfield-St-22201/unit-510/home/11281058,BRIGHT MLS,VAAR2040360,N,Y,38.8869127,-77.0934499
PAST SALE,February-9-2024,Single Family Residential,1821 N Jackson St,Arlington,VA,22201,2075000,5,4.5,KIRKWOOD TERRACE,4353,6480,2023,,477,,Sold,,,https://www.redfin.com/VA/Arlington/1821-N-Jackson-St-22201/home/11247504,BRIGHT MLS,VAAR2035362,N,Y,38.8925716,-77.0995562
PAST SALE,March-6-2024,Condo/Co-op,1411 Key Blvd #606,Arlington,VA,22209,870000,2,2.0,KEY AND NASH,1066,,2018,,816,826,Sold,,,https://www.redfin.com/VA/Arlington/1411-Key-Blvd-22209/unit-606/home/145243787,BRIGHT MLS,VAAR2039146,N,Y,38.8966238,-77.0738735
PAST SALE,May-23-2024,Condo/Co-op,3000 Spout Run Pkwy Unit A601,Arlington,VA,22201,329000,2,1.0,CARDINAL HOUSE,874,,1959,,376,742,Sold,,,https://www.redfin.com/VA/Arlington/3000-Spout-Run-Pkwy-22201/unit-A601/home/11247210,BRIGHT MLS,VAAR2041302,N,Y,38.8961748,-77.0944943
PAST SALE,December-8-2023,Condo/Co-op,1781 Pierce St N,Rosslyn,VA,22209,1750000,2,2.0,ROSSLYN,2022,,2021,,865,1825,Sold,,,https://www.redfin.com/VA/Arlington/1781-N-Pierce-St-22209/home/184043108,BRIGHT MLS,VAAR2036500,N,Y,38.8952355,-77.0761903
PAST SALE,April-30-2024,Condo/Co-op,3000 Spout Run Pkwy Unit D312,Arlington,VA,22201,345000,2,1.0,CARDINAL HOUSE,994,,1959,,347,843,Sold,,,https://www.redfin.com/VA/Arlington/3000-Spout-Run-Pkwy-22201/unit-D312/home/11247348,BRIGHT MLS,VAAR2039744,N,Y,38.8961748,-77.0944943
PAST SALE,March-13-2024,Condo/Co-op,3800 Langston Blvd #407,Arlington,VA,22207,665000,2,2.0,CHERRYDALE,1311,,2015,,507,625,Sold,,,https://www.redfin.com/VA/Arlington/3800-Langston-Blvd-22207/unit-407/home/62492648,BRIGHT MLS,VAAR2038492,N,Y,38.896369,-77.1069429
PAST SALE,March-11-2024,Condo/Co-op,1931 N Cleveland St N #513,Arlington,VA,22201,328000,2,1.0,CLEVELAND HOUSE,816,,1960,,402,481,Sold,,,https://www.redfin.com/VA/Arlington/1931-N-Cleveland-St-22201/unit-513/home/11247118,BRIGHT MLS,VAAR2038560,N,Y,38.8957114,-77.0911221
PAST SALE,March-25-2024,Condo/Co-op,1111 Arlington Blvd #925,Arlington,VA,22209,132000,0,1.0,RIVER PLACE,473,,1955,,279,405,Sold,,,https://www.redfin.com/VA/Arlington/1111-Arlington-Blvd-22209/unit-925/home/11253244,BRIGHT MLS,VAAR2038470,N,Y,38.8925425,-77.0699146
PAST SALE,April-18-2024,Condo/Co-op,1530 Key Blvd #428,Arlington,VA,22209,885000,2,2.0,ATRIUM CONDO,1640,,1986,,540,1365,Sold,,,https://www.redfin.com/VA/Arlington/1530-Key-Blvd-22209/unit-428/home/11250450,BRIGHT MLS,VAAR2039546,N,Y,38.8958315,-77.0759458
PAST SALE,January-24-2024,Condo/Co-op,1021 N Garfield St #128,Arlington,VA,22201,492000,1,1.0,CLARENDON 1021,771,,2005,,638,449,Sold,,,https://www.redfin.com/VA/Arlington/1021-N-Garfield-St-22201/unit-128/home/11281141,BRIGHT MLS,VAAR2037114,N,Y,38.8855092,-77.0933367
PAST SALE,December-22-2023,Condo/Co-op,1121 Arlington Blvd #506,Arlington,VA,22209,158000,1,1.0,RIVER PLACE,716,,1955,,221,611,Sold,,,https://www.redfin.com/VA/Arlington/1121-Arlington-Blvd-22209/unit-506/home/11252621,BRIGHT MLS,VAAR2037164,N,Y,38.8935985,-77.0699826
PAST SALE,March-7-2024,Condo/Co-op,2100 Langston Blvd #540,Arlington,VA,22201,280000,0,1.0,ASTORIA,494,,1987,,567,467,Sold,,,https://www.redfin.com/VA/Arlington/2100-Langston-Blvd-22201/unit-540/home/11249987,BRIGHT MLS,VAAR2038366,N,Y,38.8959296,-77.0837196
PAST SALE,January-31-2024,Condo/Co-op,2400 Clarendon Blvd #802,Arlington,VA,22201,505000,2,1.5,CHARLESTON CONDO,830,,1991,,608,817,Sold,,,https://www.redfin.com/VA/Arlington/2400-Clarendon-Blvd-22201/unit-802/home/11254669,BRIGHT MLS,VAAR2036852,N,Y,38.8894716,-77.0878285
PAST SALE,February-8-2024,Condo/Co-op,1401 Oak St #605,Arlington,VA,22209,1735001,2,2.5,THE WESLIE,1696,,1981,,1023,1181,Sold,,,https://www.redfin.com/VA/Arlington/1401-N-Oak-St-22209/unit-605/home/11251783,BRIGHT MLS,VAAR2036754,N,Y,38.8904482,-77.0729957
PAST SALE,January-15-2024,Single Family Residential,2811 N Beechwood Cir N,Arlington,VA,22207,1800000,4,3.5,DOVER BALMORAL RIVERWOOD,,,1932,,,,Sold,,,https://www.redfin.com/VA/Arlington/2811-N-Beechwood-Cir-22207/home/11231137,BRIGHT MLS,VAAR2037212,N,Y,38.9109598,-77.1124763
PAST SALE,March-11-2024,Condo/Co-op,1021 Arlington Blvd #732,Arlington,VA,22209,164000,1,1.0,RIVER PLACE,559,,1955,,293,490,Sold,,,https://www.redfin.com/VA/Arlington/1021-Arlington-Blvd-22209/unit-732/home/11253910,BRIGHT MLS,VAAR2037334,N,Y,38.8930252,-77.0689736
PAST SALE,December-28-2023,Single Family Residential,4012 Vacation Ln,Arlington,VA,22207,2660000,6,6.5,CHERRYDALE,5805,8028,,,458,,Sold,,,https://www.redfin.com/VA/Arlington/Vacation-Ln-22207/home/114033491,BRIGHT MLS,VAAR2035996,N,Y,38.89978,-77.1085
PAST SALE,January-9-2024,Condo/Co-op,1121 Arlington Blvd #524,Arlington,VA,22209,135000,0,1.0,RIVER PLACE,442,,1955,,305,390,Sold,,,https://www.redfin.com/VA/Arlington/1121-Arlington-Blvd-22209/unit-524/home/11252639,BRIGHT MLS,VAAR2036740,N,Y,38.8935985,-77.0699826
PAST SALE,December-18-2023,Condo/Co-op,1758 N Rhodes St Unit 6-339,Arlington,VA,22201,300000,1,1.0,COLONIAL VILLAGE,604,,1940,,497,312,Sold,,,https://www.redfin.com/VA/Arlington/1758-N-Rhodes-St-22201/unit-6-339/home/11250264,BRIGHT MLS,VAAR2036552,N,Y,38.8942385,-77.0815867
PAST SALE,February-9-2024,Condo/Co-op,1200 N Nash St #506,Arlington,VA,22209,233800,0,1.0,PROSPECT HOUSE,485,,1964,,482,434,Sold,,,https://www.redfin.com/VA/Arlington/1200-N-Nash-St-22209/unit-506/home/11252065,BRIGHT MLS,VAAR2038038,N,Y,38.889265,-77.0728605
PAST SALE,January-19-2024,Condo/Co-op,1200 N Nash St N #867,Arlington,VA,22209,364000,1,1.0,PROSPECT HOUSE,815,,1964,,447,736,Sold,,,https://www.redfin.com/VA/Arlington/1200-N-Nash-St-22209/unit-867/home/11252191,BRIGHT MLS,VAAR2036856,N,Y,38.889265,-77.0728605
PAST SALE,February-29-2024,Condo/Co-op,1021 N Garfield St #322,Arlington,VA,22201,485000,1,1.0,CLARENDON,745,,2005,,651,449,Sold,,,https://www.redfin.com/VA/Arlington/1021-N-Garfield-St-22201/unit-322/home/11281230,BRIGHT MLS,VAAR2038156,N,Y,38.8855092,-77.0933367
PAST SALE,February-15-2024,Condo/Co-op,1111 19th St N #1503,Arlington,VA,22209,705000,2,2.0,THE WATERVIEW,1077,,2008,,655,1330,Sold,,,https://www.redfin.com/VA/Arlington/1111-19th-St-N-22209/unit-1503/home/16898081,BRIGHT MLS,VAAR2036956,N,Y,38.8972352,-77.0698916
PAST SALE,December-20-2023,Condo/Co-op,2220 Fairfax Dr #412,Arlington,VA,22201,590000,2,2.0,THE PARK AT COURTHOUSE,992,,2007,,595,598,Sold,,,https://www.redfin.com/VA/Arlington/2220-Fairfax-Dr-22201/unit-412/home/16897929,BRIGHT MLS,VAAR2034812,N,Y,38.8863419,-77.0853443
PAST SALE,February-15-2024,Condo/Co-op,3000 Spout Run Pkwy Unit A109,Arlington,VA,22201,263000,1,1.0,CARDINAL HOUSE,724,,1959,,363,595,Sold,,,https://www.redfin.com/VA/Arlington/3000-Spout-Run-Pkwy-22201/unit-A109/home/11247158,BRIGHT MLS,VAAR2037018,N,Y,38.8961748,-77.0944943
PAST SALE,March-15-2024,Condo/Co-op,1201 N Garfield St #712,Arlington,VA,22201,990000,2,2.5,STATION SQUARE,1524,,2006,,650,1018,Sold,,,https://www.redfin.com/VA/Arlington/1201-N-Garfield-St-22201/unit-712/home/12041532,BRIGHT MLS,VAAR2038278,N,Y,38.8866753,-77.0934537
PAST SALE,December-22-2023,Condo/Co-op,1210 N Taft St #302,Arlington,VA,22201,405000,2,1.0,TAFT TOWERS,1016,,1959,,399,780,Sold,,,https://www.redfin.com/VA/Arlington/1210-N-Taft-St-22201/unit-302/home/11251489,BRIGHT MLS,VAAR2036414,N,Y,38.887895,-77.0821234
PAST SALE,February-16-2024,Single Family Residential,2628 Langston Blvd,Arlington,VA,22201,925000,2,1.5,LYON VILLAGE,1287,5670,1930,,719,,Sold,,,https://www.redfin.com/VA/Arlington/2628-Langston-Blvd-22201/home/11247578,BRIGHT MLS,VAAR2038224,N,Y,38.894323,-77.092619
PAST SALE,December-20-2023,Single Family Residential,2725 23rd Rd N,Arlington,VA,22201,1182725,3,2.0,MAYWOOD,1853,23740,1924,,638,,Sold,,,https://www.redfin.com/VA/Arlington/2725-23rd-Rd-N-22201/home/11231673,BRIGHT MLS,VAAR2035806,N,Y,38.8982917,-77.0958682
PAST SALE,May-24-2024,Single Family Residential,2628 N Upland St N,Arlington,VA,22207,3250000,7,8.0,BROYHILL FOREST/HILLS,8159,15783,2023,,398,,Sold,,,https://www.redfin.com/VA/Arlington/2628-N-Upland-St-22207/home/11229829,BRIGHT MLS,VAAR2039852,N,Y,38.9098365,-77.1190216
PAST SALE,January-5-2024,Condo/Co-op,3000 Spout Run Pkwy Unit B510,Arlington,VA,22201,230000,1,1.0,CARDINAL HOUSE,679,,1959,,339,575,Sold,,,https://www.redfin.com/VA/Arlington/3000-Spout-Run-Pkwy-22201/unit-B510/home/11247272,BRIGHT MLS,VAAR2035692,N,Y,38.8961748,-77.0944943
PAST SALE,February-15-2024,Condo/Co-op,1200 N Nash St #216,Arlington,VA,22209,560000,1,1.0,PROSPECT HOUSE,1058,,1980,,529,947,Sold,,,https://www.redfin.com/VA/Arlington/1200-N-Nash-St-22209/unit-216/home/11252009,BRIGHT MLS,VAAR2037828,N,Y,38.889265,-77.0728605
PAST SALE,March-10-2024,Vacant Land,2109 N Quinn St,Arlington,VA,22209,2445000,,,DAWSON TERRACE,,13863,,,,,Sold,,,https://www.redfin.com/VA/Arlington/2109-N-Quinn-St-22209/home/11248798,BRIGHT MLS,VAAR2037432,N,Y,38.899137,-77.079803
PAST SALE,,Single Family Residential,1520 N Randolph St,Arlington,VA,22207,1040000,,1.5,,1040,12337,1956,,1000,,,,,https://www.redfin.com/VA/Arlington/1520-N-Randolph-St-22207/home/11233786,,,N,Y,38.8897838,-77.1106494
PAST SALE,December-14-2023,Condo/Co-op,1021 N Garfield St #512,Arlington,VA,22201,495000,1,1.0,CLARENDON,745,,2005,,664,479,Sold,,,https://www.redfin.com/VA/Arlington/1021-N-Garfield-St-22201/unit-512/home/11281316,BRIGHT MLS,VAAR2035748,N,Y,38.8855092,-77.0933367
PAST SALE,January-16-2024,Condo/Co-op,1530 Key Blvd #325,Arlington,VA,22209,410000,1,1.0,ATRIUM CONDO,765,,1986,,536,685,Sold,,,https://www.redfin.com/VA/Arlington/1530-Key-Blvd-22209/unit-325/home/11250421,BRIGHT MLS,VAAR2035920,N,Y,38.8958315,-77.0759458
PAST SALE,February-14-2024,Condo/Co-op,1111 19th St N #2901,Arlington,VA,22209,5950000,3,4.0,ROSSLYN,4600,,2008,,1293,5285,Sold,,,https://www.redfin.com/VA/Arlington/1111-19th-St-N-22209/unit-2901/home/16898053,BRIGHT MLS,VAAR2037448,N,Y,38.8972352,-77.0698916
PAST SALE,February-29-2024,Condo/Co-op,2030 N Adams St #1211,Arlington,VA,22201,259900,1,1.0,CIRCLE,720,,1964,,361,905,Sold,,,https://www.redfin.com/VA/Arlington/2030-N-Adams-St-22201/unit-1211/home/11247034,BRIGHT MLS,VAAR2037154,N,Y,38.8977682,-77.0896321
PAST SALE,January-23-2024,Condo/Co-op,1821 21st St N #1,Arlington,VA,22209,205000,0,1.0,PALISADE GARDEN,333,,1947,,616,176,Sold,,,https://www.redfin.com/VA/Arlington/1821-21st-St-N-22209/unit-1/home/11248904,BRIGHT MLS,VAAR2034782,N,Y,38.8981496,-77.0808997
PAST SALE,May-29-2024,Condo/Co-op,2030 N Adams St #911,Arlington,VA,22201,255000,1,1.0,CIRCLE,720,,1964,,354,905,Sold,,,https://www.redfin.com/VA/Arlington/2030-N-Adams-St-22201/unit-911/home/11246998,BRIGHT MLS,VAAR2039250,N,Y,38.8977682,-77.0896321
PAST SALE,December-19-2023,Condo/Co-op,3000 Spout Run Pkwy Unit D311,Arlington,VA,22201,336500,2,1.0,CARDINAL HOUSE,987,,1959,,341,837,Sold,,,https://www.redfin.com/VA/Arlington/3000-Spout-Run-Pkwy-22201/unit-D311/home/11247347,BRIGHT MLS,VAAR2034088,N,Y,38.8961748,-77.0944943
PAST SALE,March-29-2024,Townhouse,1520 N Scott St Unit TH-6,Arlington,VA,22209,700000,3,1.5,ODYSSEY,1412,,2006,,496,914,Sold,,,https://www.redfin.com/VA/Arlington/1520-N-Scott-St-22209/unit-TH-6/home/22983511,BRIGHT MLS,VAAR2037172,N,Y,38.8911919,-77.08105
PAST SALE,March-8-2024,Townhouse,2514 Fairfax Dr Unit 6DIII,Arlington,VA,22201,805000,3,3.5,BARTON PLACE,1593,,1985,,505,678,Sold,,,https://www.redfin.com/VA/Arlington/2514-Fairfax-Dr-22201/unit-6DIII/home/190084615,BRIGHT MLS,VAAR2037384,N,Y,38.887233,-77.088726
PAST SALE,February-16-2024,Single Family Residential,3931 30th St N,Arlington,VA,22207,1262500,4,3.0,BELLEVUE FOREST,2200,9110,1956,,574,,Sold,,,https://www.redfin.com/VA/Arlington/3931-30th-St-N-22207/home/11230896,BRIGHT MLS,VAAR2036846,N,Y,38.9123871,-77.1123406
PAST SALE,December-19-2023,Condo/Co-op,1881 N Nash St #1008,Arlington,VA,22209,830000,1,1.5,ROSSLYN,1312,,2009,,633,1176,Sold,,,https://www.redfin.com/VA/Arlington/1881-N-Nash-St-22209/unit-1008/home/28681697,BRIGHT MLS,VAAR2035136,N,Y,38.896966,-77.073168
PAST SALE,February-12-2024,Condo/Co-op,1301 N Courthouse Rd #1108,Arlington,VA,22201,555000,2,2.0,WOODBURY HEIGHTS,1150,,1983,,483,956,Sold,,,https://www.redfin.com/VA/Arlington/1301-N-Courthouse-Rd-22201/unit-1108/home/11251375,BRIGHT MLS,VAAR2036560,N,Y,38.8884978,-77.0829361
PAST SALE,March-8-2024,Condo/Co-op,1530 Key Blvd #931,Arlington,VA,22209,484000,1,1.0,ATRIUM CONDO,995,,1986,,486,857,Sold,,,https://www.redfin.com/VA/Arlington/1530-Key-Blvd-22209/unit-931/home/11250589,BRIGHT MLS,VAAR2036960,N,Y,38.8958315,-77.0759458
PAST SALE,March-22-2024,Condo/Co-op,1530 Key Blvd #421,Arlington,VA,22209,420000,1,1.0,ATRIUM CONDO,765,,1986,,549,763,Sold,,,https://www.redfin.com/VA/Arlington/1530-Key-Blvd-22209/unit-421/home/11250444,BRIGHT MLS,VAAR2037460,N,Y,38.8958315,-77.0759458
PAST SALE,March-8-2024,Single Family Residential,4009 20th St N,Arlington,VA,22207,2865000,6,6.5,CHERRYDALE,6129,8250,2023,,467,,Sold,,,https://www.redfin.com/VA/Arlington/4009-20th-St-N-22207/home/11233924,BRIGHT MLS,VAAR2037388,N,Y,38.894862,-77.1082163
PAST SALE,April-1-2024,Condo/Co-op,1881 N Nash St #2011,Arlington,VA,22209,2625000,2,3.5,TURNBERRY TOWER,3036,,2009,,865,2632,Sold,,,https://www.redfin.com/VA/Arlington/1881-N-Nash-St-22209/unit-2011/home/28681822,BRIGHT MLS,VAAR2036670,N,Y,38.896966,-77.073168
PAST SALE,March-20-2024,Condo/Co-op,1530 Key Blvd #1303,Arlington,VA,22209,860000,2,2.5,ATRIUM CONDO,1574,,1986,,546,1352,Sold,,,https://www.redfin.com/VA/Arlington/1530-Key-Blvd-22209/unit-1303/home/11250671,BRIGHT MLS,VAAR2036372,N,Y,38.8958315,-77.0759458
PAST SALE,May-15-2024,Condo/Co-op,1700 Clarendon Blvd #117,Arlington,VA,22209,1525000,2,2.5,GASLIGHT SQUARE,1922,,2012,,793,951,Sold,,,https://www.redfin.com/VA/Arlington/1700-Clarendon-Blvd-22209/unit-117/home/49797926,BRIGHT MLS,VAAR2032976,N,Y,38.8928805,-77.0778967
PAST SALE,April-26-2024,Condo/Co-op,1201 N Nash St #101,Arlington,VA,22209,1515000,3,2.5,MEMORIAL OVERLOOK,2364,,2002,,641,2112,Sold,,,https://www.redfin.com/VA/Arlington/1201-N-Nash-St-22209/unit-101/home/11279023,BRIGHT MLS,VAAR2038422,N,Y,38.8883676,-77.0719285
PAST SALE,January-9-2024,Condo/Co-op,1121 Arlington Blvd #826,Arlington,VA,22209,130300,0,1.0,RIVER PLACE,383,,1955,,340,390,Sold,,,https://www.redfin.com/VA/Arlington/1121-Arlington-Blvd-22209/unit-826/home/11252785,BRIGHT MLS,VAAR2033830,N,Y,38.8935985,-77.0699826
PAST SALE,March-26-2024,Condo/Co-op,1530 Key Blvd #610,Arlington,VA,22209,499000,1,1.0,ATRIUM CONDO,850,,1986,,587,749,Sold,,,https://www.redfin.com/VA/Arlington/1530-Key-Blvd-22209/unit-610/home/11250490,BRIGHT MLS,VAAR2036648,N,Y,38.8958315,-77.0759458
PAST SALE,March-29-2024,Condo/Co-op,2001 15th St N #220,Arlington,VA,22201,430000,1,1.0,ODYSSEY,649,,2006,,663,449,Sold,,,https://www.redfin.com/VA/Arlington/2001-15th-St-N-22201/unit-220/home/12041169,BRIGHT MLS,VAAR2037336,N,Y,38.8912215,-77.081359
PAST SALE,December-27-2023,Single Family Residential,3914 17th St N,Arlington,VA,22207,2332845,6,6.5,CHERRYDALE,6255,9746,2023,,373,,Sold,,,https://www.redfin.com/VA/Arlington/3914-17th-St-N-22207/home/11233976,BRIGHT MLS,VAAR2027944,N,Y,38.8912259,-77.1075701
PAST SALE,April-5-2024,Condo/Co-op,1530 Key Blvd #106,Arlington,VA,22209,950000,3,3.0,ATRIUM CONDO,2044,,1986,,465,1665,Sold,,,https://www.redfin.com/VA/Arlington/1530-Key-Blvd-22209/unit-106/home/11250354,BRIGHT MLS,VAAR2036640,N,Y,38.8958315,-77.0759458
PAST SALE,April-18-2024,Condo/Co-op,1320 N Wayne St #206,Arlington,VA,22201,615000,2,2.0,COURTHOUSE HILL,941,,1996,,654,553,Sold,,,https://www.redfin.com/VA/Arlington/1320-N-Wayne-St-22201/unit-206/home/11254507,BRIGHT MLS,VAAR2037286,N,Y,38.8887061,-77.0865847
PAST SALE,April-30-2024,Condo/Co-op,1931 N Cleveland St N #111,Arlington,VA,22201,250000,1,1.0,CLEVELAND HOUSE,679,,1960,,368,365,Sold,,,https://www.redfin.com/VA/Arlington/1931-N-Cleveland-St-22201/unit-111/home/11247061,BRIGHT MLS,VAAR2036392,N,Y,38.8957114,-77.0911221
PAST SALE,March-29-2024,Condo/Co-op,1021 Arlington Blvd #543,Arlington,VA,22209,180000,1,1.0,RIVER PLACE,716,,1955,,251,632,Sold,,,https://www.redfin.com/VA/Arlington/1021-Arlington-Blvd-22209/unit-543/home/11253825,BRIGHT MLS,VAAR2032400,N,Y,38.8930252,-77.0689736
PAST SALE,December-18-2023,Condo/Co-op,1530 Key Blvd #603,Arlington,VA,22209,419000,1,1.0,ATRIUM CONDO,765,,1986,,548,685,Sold,,,https://www.redfin.com/VA/Arlington/1530-Key-Blvd-22209/unit-603/home/11250485,BRIGHT MLS,VAAR2031126,N,Y,38.8958315,-77.0759458
PAST SALE,April-25-2024,Condo/Co-op,1411 Key Blvd #506,Arlington,VA,22209,850000,2,2.0,KEY AND NASH,1066,,2018,,797,826,Sold,,,https://www.redfin.com/VA/Arlington/1411-Key-Blvd-22209/unit-506/home/146097081,BRIGHT MLS,VAAR2034512,N,Y,38.8966238,-77.0738735
PAST SALE,May-31-2024,Condo/Co-op,3000 Spout Run Pkwy Unit B601,Arlington,VA,22201,345000,2,1.0,CARDINAL HOUSE,904,,1959,,382,766,Sold,,,https://www.redfin.com/VA/Arlington/3000-Spout-Run-Pkwy-22201/unit-B601/home/11247275,BRIGHT MLS,VAAR2036452,N,Y,38.8961748,-77.0944943
PAST SALE,April-5-2024,Single Family Residential,3515 14th St N,Arlington,VA,22201,1825000,7,7.0,DOUGLAS EST,5996,6295,2011,,304,,Sold,,,https://www.redfin.com/VA/Arlington/3515-14th-St-N-22201/home/11247855,BRIGHT MLS,VAAR2031360,N,Y,38.8885855,-77.1040636
PAST SALE,January-23-2024,Condo/Co-op,1881 N Nash St #1909,Arlington,VA,22209,2450000,3,3.5,ARLINGTON,2655,,2009,,923,2542,Sold,,,https://www.redfin.com/VA/Arlington/1881-N-Nash-St-22209/unit-1909/home/28681819,BRIGHT MLS,VAAR2029678,N,Y,38.896966,-77.073168
PAST SALE,May-10-2024,Condo/Co-op,1021 N Garfield St #1032,Arlington,VA,22201,940000,2,2.0,CLARENDON 1021,1287,,2005,,730,714,Sold,,,https://www.redfin.com/VA/Arlington/1021-N-Garfield-St-22201/unit-1032/home/11281515,BRIGHT MLS,VAAR2034542,N,Y,38.8853454,-77.0934087
PAST SALE,March-14-2024,Condo/Co-op,1881 N Nash St #406,Arlington,VA,22209,850000,1,2.0,TURNBERRY TOWER,1404,,2009,,605,1152,Sold,,,https://www.redfin.com/VA/Arlington/1881-N-Nash-St-22209/unit-406/home/28681635,BRIGHT MLS,VAAR2031310,N,Y,38.896966,-77.073168
PAST SALE,April-29-2024,Condo/Co-op,1021 Arlington Blvd #639,Arlington,VA,22209,136000,0,1.0,RIVER PLACE,383,,1955,,355,377,Sold,,,https://www.redfin.com/VA/Arlington/1021-Arlington-Blvd-22209/unit-639/home/11253869,BRIGHT MLS,VAAR2031864,N,Y,38.8930252,-77.0689736
PAST SALE,March-19-2024,Condo/Co-op,1111 19th St N #2401,Arlington,VA,22209,2200000,3,3.5,ROSSLYN,2165,,2008,,1016,2538,Sold,,,https://www.redfin.com/VA/Arlington/1111-19th-St-N-22209/unit-2401/home/16898333,BRIGHT MLS,VAAR2026504,N,Y,38.8972352,-77.0698916
PAST SALE,January-31-2024,Single Family Residential,3162 Key Blvd,Arlington,VA,22201,3344474,6,6.5,LYON VILLAGE,5694,6017,2023,,587,,Sold,,,https://www.redfin.com/VA/Arlington/3162-Key-Blvd-22201/home/11248261,BRIGHT MLS,VAAR2022262,N,Y,38.8896586,-77.0978367
PAST SALE,,Condo/Co-op,1530 Key Blvd #1209,Arlington,VA,22209,410000,1,1.0,,765,,1986,,536,,,,,https://www.redfin.com/VA/Arlington/1530-Key-Blvd-22209/unit-1209/home/11250650,,,N,Y,38.8958315,-77.0759458
PAST SALE,,Condo/Co-op,2514 Fairfax Dr Unit 6D111,Arlington,VA,22201,805000,3,3.5,,1593,,1985,,505,,,,,https://www.redfin.com/VA/Arlington/2514-Fairfax-Dr-22201/unit-6D111/home/11254820,,,N,Y,38.887233,-77.088726
PAST SALE,,Multi-Family (5+ Unit),1701 12th St N,Arlington,VA,22209,14332500,,,,,37936,,,,,,,,https://www.redfin.com/VA/Arlington/1701-12th-St-N-22209/home/11252433,,,N,Y,38.8879891,-77.0771767
PAST SALE,,Single Family Residential,1416 N Hancock St,Arlington,VA,22201,1515000,3,1.0,,1264,6445,1927,,1199,,,,,https://www.redfin.com/VA/Arlington/1416-N-Hancock-St-22201/home/11248248,,,N,Y,38.8895971,-77.0959791
PAST SALE,,Condo/Co-op,2059 N Woodstock St #106,Arlington,VA,22207,255000,2,1.0,,821,,1959,,311,,,,,https://www.redfin.com/VA/Arlington/2059-N-Woodstock-St-22207/unit-106/home/11234966,,,N,Y,38.897421,-77.1178127
PAST SALE,,Condo/Co-op,1781 N Pierce St #304,Arlington,VA,22209,1375000,,,,,,,,,,,,,https://www.redfin.com/VA/Arlington/1781-N-Pierce-St-22209/unit-304/home/180265877,,,N,Y,38.8952355,-77.0761903
PAST SALE,,Condo/Co-op,1781 N Pierce St #804,Arlington,VA,22209,1020000,,,,,,,,,,,,,https://www.redfin.com/VA/Arlington/1781-N-Pierce-St-22209/unit-804/home/180265901,,,N,Y,38.8952355,-77.0761903
PAST SALE,,Single Family Residential,2400 N Lincoln St,Arlington,VA,22207,1225000,3,3.5,,2543,11439,1949,,482,,,,,https://www.redfin.com/VA/Arlington/2400-N-Lincoln-St-22207/home/11231469,,,N,Y,38.9017362,-77.1016012
PAST SALE,,Condo/Co-op,1911 Key Blvd #11564,Arlington,VA,22201,319900,1,1.0,,608,,1940,,526,,,,,https://www.redfin.com/VA/Arlington/1911-Key-Blvd-22201/unit-11564/home/11249697,,,N,Y,38.894751,-77.083634
PAST SALE,,Condo/Co-op,1200 N Nash St #1157,Arlington,VA,22209,850000,2,1.0,,1232,,1980,,690,,,,,https://www.redfin.com/VA/Arlington/1200-N-Nash-St-22209/unit-1157/home/11252247,,,N,Y,38.889265,-77.0728605
PAST SALE,,Single Family Residential,1225 N Quincy St,Arlington,VA,22201,1200000,4,3.0,,1872,11210,1928,,641,,,,,https://www.redfin.com/VA/Arlington/1225-N-Quincy-St-22201/home/11248435,,,N,Y,38.8870533,-77.1077724
PAST SALE,,Condo/Co-op,2000 Clarendon Blvd #1006,Arlington,VA,22201,566000,,,,,,,,,,,,,https://www.redfin.com/VA/Arlington/2000-Clarendon-Blvd-22201/unit-1006/home/180266311,,,N,Y,38.8914769,-77.082077
PAST SALE,,Condo/Co-op,1510 12th St N #4,Arlington,VA,22209,417000,2,1.5,,1060,,1972,,393,,,,,https://www.redfin.com/VA/Arlington/1510-12th-St-N-22209/unit-4/home/11252304,,,N,Y,38.8878409,-77.0744793
PAST SALE,,Condo/Co-op,2061 N Woodstock St #301,Arlington,VA,22207,270000,2,1.0,,803,,1959,,336,,,,,https://www.redfin.com/VA/Arlington/2061-N-Woodstock-St-22207/unit-301/home/11234962,,,N,Y,38.8974482,-77.118026
PAST SALE,,Condo/Co-op,1219 N Nash St #1,Arlington,VA,22209,552600,2,2.5,,1124,,1978,,492,,,,,https://www.redfin.com/VA/Arlington/1219-N-Nash-St-22209/unit-1/home/11252310,,,N,Y,38.8887416,-77.0719398
